,City,Lat,Lng,Max Temp,Humidity,Cloudiness,Wind Speed,Country,Date
0,ushuaia,-54.8,-68.3,37.06,81,0,8.05,AR,1634890417
1,busselton,-33.65,115.3333,69.04,50,2,12.5,AU,1634890684
2,mataura,-46.1927,168.8643,49.53,84,94,2.1,NZ,1634890684
3,porto santo,33.072,-16.3415,69.3,73,40,11.5,PT,1634890684
4,petropavlovsk-kamchatskiy,53.0452,158.6483,28.99,64,0,4.47,RU,1634890685
5,lampazos de naranjo,27.0167,-100.5167,73.74,80,55,8.14,MX,1634890685
6,nichinan,31.6,131.3667,67.68,55,97,10.54,JP,1634890686
7,butaritari,3.0707,172.7902,82.15,80,34,13.87,KI,1634890686
8,cap malheureux,-19.9842,57.6142,80.47,68,8,5.99,MU,1634890687
9,bredasdorp,-34.5322,20.0403,70.92,40,0,17.27,ZA,1634890687
10,rikitea,-23.1203,-134.9692,73.83,80,100,23.67,PF,1634890687
11,chokurdakh,70.6333,147.9167,-14.69,100,60,3.15,RU,1634890688
12,te anau,-45.4167,167.7167,50.38,91,94,1.1,NZ,1634890688
13,anchorage,61.2181,-149.9003,38.91,93,90,3.0,US,1634890522
14,clyde river,70.4692,-68.5914,19.18,78,76,4.25,CA,1634890689
15,cabo san lucas,22.8909,-109.9124,77.5,84,0,1.99,MX,1634890478
16,bambous virieux,-20.3428,57.7575,80.22,69,75,17.27,MU,1634890690
17,east london,-33.0153,27.9116,70.74,83,0,1.14,ZA,1634890509
18,atuona,-9.8,-139.0333,78.21,77,55,19.44,PF,1634890690
19,port alfred,-33.5906,26.891,71.38,61,100,13.18,ZA,1634890691
20,qaanaaq,77.484,-69.3632,-2.16,74,0,8.52,GL,1634890691
21,krasnoarmeysk,51.0239,45.6969,58.06,59,100,22.79,RU,1634890691
22,kavieng,-2.5744,150.7967,82.56,71,100,5.39,PG,1634890692
23,maicao,11.3832,-72.2432,78.26,84,49,7.7,CO,1634890692
24,upernavik,72.7868,-56.1549,19.42,90,100,9.33,GL,1634890693
25,khatanga,71.9667,102.5,10.24,92,100,9.48,RU,1634890693
26,punta arenas,-53.15,-70.9167,42.91,65,90,19.57,CL,1634890532
27,anori,-3.7728,-61.6442,73.31,95,99,2.86,BR,1634890694
28,mahebourg,-20.4081,57.7,80.26,69,75,17.27,MU,1634890694
29,vaini,-21.2,-175.2,71.76,94,75,8.05,TO,1634890695
30,hermanus,-34.4187,19.2345,70.81,58,36,26.49,ZA,1634890695
31,puerto ayora,-0.7393,-90.3518,69.19,89,100,8.46,EC,1634890696
32,flin flon,54.7682,-101.865,27.61,85,26,4.07,CA,1634890511
33,arinos,-15.9169,-46.1056,70.07,94,75,3.65,BR,1634890696
34,cape town,-33.9258,18.4232,65.1,57,75,24.16,ZA,1634890697
35,moranbah,-22.0016,148.0466,89.1,35,63,14.5,AU,1634890697
36,oltu,40.5498,42.0013,59.43,26,0,0.38,TR,1634890698
37,atambua,-9.1061,124.8925,83.5,64,92,4.63,ID,1634890698
38,vestmannaeyjar,63.4427,-20.2734,41.99,87,90,18.41,IS,1634890698
39,gat,31.61,34.7642,79.79,32,0,8.34,IL,1634890622
40,colomi,-17.35,-65.8667,52.07,84,53,2.93,BO,1634890699
41,yenagoa,4.9247,6.2642,79.43,85,100,4.07,NG,1634890699
42,meulaboh,4.1363,96.1285,80.06,85,100,6.8,ID,1634890700
43,deer lake,49.1667,-57.4316,31.86,93,1,5.75,CA,1634890700
44,manacapuru,-3.2997,-60.6206,70.38,93,100,4.36,BR,1634890701
45,new norfolk,-42.7826,147.0587,66.65,51,100,1.39,AU,1634890701
46,saldanha,-33.0117,17.9442,62.15,74,100,23.24,ZA,1634890455
47,castro,-24.7911,-50.0119,48.31,93,2,2.77,BR,1634890702
48,dunedin,-45.8742,170.5036,52.81,79,100,11.01,NZ,1634890702
49,victoria,22.2855,114.1577,70.25,75,100,1.99,HK,1634890522
50,aasiaat,68.7098,-52.8699,16.93,97,99,6.73,GL,1634890703
51,grand gaube,-20.0064,57.6608,80.38,68,10,5.99,MU,1634890703
52,geraldton,-28.7667,114.6,72.01,56,0,20.71,AU,1634890704
53,praia da vitoria,38.7333,-27.0667,65.75,88,40,10.13,PT,1634890704
54,narsaq,60.9167,-46.05,32.22,63,100,3.04,GL,1634890704
55,hilo,19.7297,-155.09,72.28,73,1,6.91,US,1634890513
56,aliwal north,-30.6937,26.7114,59.2,68,91,23.26,ZA,1634890705
57,mar del plata,-38.0023,-57.5575,61.09,94,90,1.99,AR,1634890675
58,thompson,55.7435,-97.8558,30.36,93,90,5.75,CA,1634890706
59,mount gambier,-37.8333,140.7667,57.11,88,75,11.5,AU,1634890706
60,mildura,-34.2,142.15,82.36,23,90,10.36,AU,1634890707
61,champerico,14.3,-91.9167,80.35,84,100,5.06,GT,1634890707
62,craig,40.5153,-107.5464,41.54,93,1,0.0,US,1634890707
63,saskylakh,71.9167,114.0833,-5.55,100,96,1.81,RU,1634890708
64,vetrisoaia,46.43,28.2083,67.86,42,74,10.11,RO,1634890708
65,chaykovskaya,58.1279,55.5378,44.49,99,100,9.33,RU,1634890709
66,ostrovnoy,68.0531,39.5131,36.12,70,100,22.64,RU,1634890709
67,moron,-34.6534,-58.6198,66.97,71,80,8.72,AR,1634890583
68,fortuna,40.5982,-124.1573,56.43,76,90,5.01,US,1634890710
69,cherskiy,68.75,161.3,1.08,99,99,4.74,RU,1634890710
70,huilong,31.8111,121.655,67.03,54,76,14.56,CN,1634890710
71,shache,38.4167,77.2406,63.01,16,18,15.12,CN,1634890711
72,jamestown,42.097,-79.2353,53.24,92,90,7.0,US,1634890711
73,nadadores,27.05,-101.6,78.89,78,86,1.39,MX,1634890712
74,pisco,-13.7,-76.2167,59.05,88,0,9.22,PE,1634890712
75,kaitangata,-46.2817,169.8464,48.15,95,57,6.29,NZ,1634890713
76,yabelo,4.8833,38.0833,73.58,40,15,14.5,ET,1634890713
77,albany,42.6001,-73.9662,59.95,91,75,5.06,US,1634890492
78,port blair,11.6667,92.75,84.29,73,100,1.57,IN,1634890714
79,ponta do sol,32.6667,-17.1,70.0,61,40,4.32,PT,1634890714
80,namibe,-15.1961,12.1522,75.54,44,40,5.44,AO,1634890715
81,airai,-8.9266,125.4092,74.3,57,100,2.68,TL,1634890715
82,kimbe,-5.5502,150.1429,77.68,87,100,0.25,PG,1634890715
83,yantal,56.8471,105.2542,45.7,60,70,4.97,RU,1634890716
84,kapaa,22.0752,-159.319,75.52,89,90,11.5,US,1634890716
85,eyl,7.9803,49.8164,85.06,58,40,9.55,SO,1634890717
86,alta floresta,-9.8756,-56.0861,70.27,99,99,3.06,BR,1634890717
87,provideniya,64.3833,-173.3,24.69,75,100,14.03,RU,1634890718
88,qaqortoq,60.7167,-46.0333,32.5,57,100,5.91,GL,1634890718
89,port elizabeth,-33.918,25.5701,66.49,77,20,24.16,ZA,1634890719
90,lata,40.1629,-8.3327,55.81,79,0,4.21,PT,1634890719
91,hobart,-42.8794,147.3294,67.01,69,75,10.36,AU,1634890534
92,yegorlykskaya,46.5656,40.6562,65.05,44,25,15.57,RU,1634890720
93,morro bay,35.3658,-120.8499,62.2,94,100,1.01,US,1634890720
94,saint-philippe,-21.3585,55.7679,81.1,76,42,9.04,RE,1634890720
95,nemuro,43.3236,145.575,43.23,69,96,10.78,JP,1634890721
96,souillac,-20.5167,57.5167,80.37,69,75,17.27,MU,1634890721
97,san pedro de macoris,18.4616,-69.2972,77.49,91,14,5.59,DO,1634890513
98,naze,28.3667,129.4833,68.92,62,100,19.93,JP,1634890722
99,tual,-5.6667,132.75,83.73,70,87,7.7,ID,1634890722
100,norman wells,65.282,-126.8329,33.84,80,75,6.91,CA,1634890723
101,ilulissat,69.2167,-51.1,6.46,83,22,6.6,GL,1634890723
102,hithadhoo,-0.6,73.0833,82.54,72,100,9.26,MV,1634890724
103,montes claros,-16.735,-43.8617,67.78,88,0,2.3,BR,1634890724
104,katobu,-4.9408,122.5276,85.78,64,63,4.07,ID,1634890724
105,magistralnyy,56.1725,107.4458,41.58,82,99,2.75,RU,1634890725
106,codrington,-38.2667,141.9667,56.1,94,96,6.67,AU,1634890725
107,san vicente,-26.6167,-54.1333,54.23,91,0,1.61,AR,1634890726
108,isangel,-19.55,169.2667,76.42,81,72,3.18,VU,1634890726
109,deputatskiy,69.3,139.9,-7.15,100,100,2.08,RU,1634890727
110,georgetown,5.4112,100.3354,87.89,72,20,8.05,MY,1634890510
111,severo-kurilsk,50.6789,156.125,37.99,78,80,9.69,RU,1634890728
112,kamaishi,39.2667,141.8833,49.15,67,50,3.42,JP,1634890728
113,lakselv,70.0513,24.9718,33.62,64,40,12.66,NO,1634890729
114,knysna,-34.0363,23.0471,64.78,97,100,0.67,ZA,1634890729
115,abha,18.2164,42.5053,75.02,16,0,20.71,SA,1634890729
116,bluff,-46.6,168.3333,51.44,82,59,7.81,NZ,1634890730
117,tuktoyaktuk,69.4541,-133.0374,28.71,83,6,10.47,CA,1634890730
118,yellowknife,62.456,-114.3525,41.56,82,5,13.0,CA,1634890442
119,belmonte,-15.8631,-38.8828,70.3,91,100,10.09,BR,1634890731
120,seltso,53.3675,34.1,55.89,47,0,20.13,RU,1634890731
121,san patricio,28.017,-97.5169,75.83,83,7,3.78,US,1634890732
122,khartoum,15.5518,32.5324,100.02,29,47,12.88,SD,1634890642
123,el guapinol,13.7667,-87.4667,69.8,93,77,4.41,HN,1634890732
124,chingirlau,51.095,54.0814,52.66,44,100,20.8,KZ,1634890733
125,carnarvon,-24.8667,113.6333,77.07,53,18,23.02,AU,1634890733
126,komsomolskiy,40.4272,71.7189,52.52,37,100,20.71,UZ,1634890734
127,lavrentiya,65.5833,-171.0,23.63,85,100,9.78,RU,1634890734
128,atexcatzingo,19.4667,-98.1333,52.88,88,100,6.04,MX,1634890734
129,naron,43.5167,-8.1528,56.59,80,99,10.07,ES,1634890735
130,nikolskoye,59.7035,30.7861,47.88,68,97,19.17,RU,1634890735
131,bubaque,11.2833,-15.8333,81.93,74,68,3.18,GW,1634890736
132,zurrieq,35.8311,14.4742,73.96,88,20,11.5,MT,1634890736
133,xinyu,27.8043,114.9334,53.98,94,100,3.87,CN,1634890736
134,le vauclin,14.5452,-60.8388,80.85,74,20,13.8,MQ,1634890737
135,talnakh,69.4865,88.3972,14.34,98,100,3.02,RU,1634890737
136,nome,64.5011,-165.4064,30.27,74,40,12.66,US,1634890704
137,saint george,37.1041,-113.5841,60.53,47,1,0.0,US,1634890627
138,plunge,55.9114,21.8442,46.99,68,57,20.45,LT,1634890738
139,dikson,73.5069,80.5464,20.64,75,14,8.99,RU,1634890738
140,rio grande,-32.035,-52.0986,58.08,88,0,4.81,BR,1634890739
141,tessalit,20.1986,1.0114,81.84,18,0,5.88,ML,1634890739
142,tumpat,6.1978,102.171,87.85,79,40,8.05,MY,1634890740
143,labuhan,-6.8844,112.2051,87.62,63,62,12.8,ID,1634890740
144,ormoz,46.4114,16.1544,54.5,93,100,0.74,SI,1634890741
145,balad,34.0164,44.1453,83.84,18,0,10.4,IQ,1634890741
146,iqaluit,63.7506,-68.5145,26.33,92,75,8.99,CA,1634890742
147,barrow,71.2906,-156.7887,28.42,93,90,5.75,US,1634890742
148,tasiilaq,65.6145,-37.6368,32.16,72,100,4.41,GL,1634890743
149,sassandra,4.95,-6.0833,76.95,91,100,5.95,CI,1634890743
150,faanui,-16.4833,-151.75,79.72,76,6,8.25,PF,1634890743
151,ruidoso,33.3317,-105.673,54.52,35,1,5.75,US,1634890744
152,semme,46.1963,1.5007,48.61,89,40,3.69,FR,1634890744
153,ahipara,-35.1667,173.1667,60.73,92,100,15.61,NZ,1634890745
154,khandyga,62.6667,135.6,22.71,93,100,8.59,RU,1634890745
155,kruisfontein,-34.0033,24.7314,62.83,89,100,22.64,ZA,1634890746
156,rawlins,41.7911,-107.2387,44.49,52,1,12.66,US,1634890562
157,palu,-0.8917,119.8707,82.81,82,92,2.39,ID,1634890583
158,fayaoue,-20.65,166.5333,76.6,81,69,9.4,NC,1634890746
159,bowen,-20.0167,148.2333,78.69,80,0,12.59,AU,1634890747
160,lebu,-37.6167,-73.65,46.29,86,6,11.03,CL,1634890558
161,namatanai,-3.6667,152.4333,77.65,86,100,8.63,PG,1634890747
162,bafia,4.75,11.2333,72.82,93,100,2.13,CM,1634890748
163,amurzet,47.6967,131.0981,43.39,39,1,5.7,RU,1634890748
164,gao,16.6362,1.637,87.82,18,5,4.85,ML,1634890749
165,amapa,1.0,-52.0,71.28,100,100,1.3,BR,1634890749
166,beloha,-25.1667,45.05,78.22,38,3,9.66,MG,1634890749
167,gorodishche,48.8045,44.4744,58.08,62,40,33.55,RU,1634890750
168,skjervoy,70.0311,20.9714,35.78,56,99,20.36,NO,1634890750
169,bathsheba,13.2167,-59.5167,83.01,69,40,25.32,BB,1634890751
170,yulara,-25.2406,130.9889,96.64,9,0,4.61,AU,1634890751
171,kununurra,-15.7667,128.7333,98.58,44,25,11.5,AU,1634890752
172,sobolevo,54.4299,31.8996,49.41,67,97,21.94,RU,1634890752
173,ijui,-28.3878,-53.9147,57.22,83,0,6.06,BR,1634890752
174,shimoda,34.6667,138.95,54.1,83,100,15.79,JP,1634890753
175,charters towers,-20.1,146.2667,84.07,47,8,19.57,AU,1634890753
176,arraial do cabo,-22.9661,-42.0278,58.96,69,0,0.0,BR,1634890754
177,chuy,-33.6971,-53.4616,51.64,90,4,2.98,UY,1634890754
178,kodiak,57.79,-152.4072,38.26,69,100,14.54,US,1634890755
179,dhoraji,21.7333,70.45,87.57,39,0,8.93,IN,1634890755
180,kijang,35.2442,129.2139,64.13,48,46,12.53,KR,1634890636
181,nouakchott,18.0858,-15.9785,71.53,30,27,12.21,MR,1634890756
182,paamiut,61.994,-49.6678,36.72,76,97,15.68,GL,1634890756
183,kitimat,54.0524,-128.6534,43.92,28,100,2.66,CA,1634890465
184,banjar,-8.19,114.9675,85.91,73,56,3.02,ID,1634890757
185,alofi,-19.0595,-169.9187,71.49,73,66,6.91,NU,1634890757
186,tobermory,45.2501,-81.6665,33.31,74,13,17.07,CA,1634890758
187,avarua,-21.2078,-159.775,71.65,60,40,6.91,CK,1634890758
188,pevek,69.7008,170.3133,12.97,93,100,9.82,RU,1634890758
189,aklavik,68.2191,-135.0107,36.32,86,10,6.87,CA,1634890759
190,kupang,-10.1667,123.5833,90.18,58,20,12.66,ID,1634890759
191,jieshi,22.8134,115.8257,65.95,76,100,12.66,CN,1634890760
192,azare,11.6765,10.1948,84.42,50,97,8.79,NG,1634890760
193,rio hato,8.3833,-80.1667,77.79,88,39,5.46,PA,1634890760
194,torbay,47.6666,-52.7314,41.27,87,20,6.91,CA,1634890761
195,san carlos del zulia,9.0,-71.9135,72.93,96,27,4.29,VE,1634890761
196,saint-leu,-21.15,55.2833,80.56,69,7,2.06,RE,1634890762
197,ribeira grande,38.5167,-28.7,66.6,82,40,8.05,PT,1634890762
198,adre,13.4667,22.2,83.77,23,63,20.49,TD,1634890762
199,moerai,-22.4333,-151.3333,73.58,72,22,8.28,PF,1634890763
200,hit,33.6416,42.8251,82.54,17,0,10.76,IQ,1634890763
201,iskateley,67.6803,53.1512,29.61,94,84,6.82,RU,1634890764
202,la palma,33.8464,-118.0467,66.24,94,90,0.0,US,1634890499
203,arica,-18.475,-70.3042,59.23,77,90,5.75,CL,1634890764
204,grindavik,63.8424,-22.4338,39.67,93,75,8.05,IS,1634890765
205,vallenar,-28.5708,-70.7581,55.11,60,0,1.41,CL,1634890517
206,siena,43.2167,11.4,67.51,84,100,3.13,IT,1634890766
207,ko samui,9.5357,99.9357,87.71,70,20,6.91,TH,1634890766
208,kudahuvadhoo,2.6708,72.8944,82.42,69,24,7.83,MV,1634890767
209,jamame,0.0722,42.7506,81.14,72,100,11.18,SO,1634890767
210,guerrero negro,27.9769,-114.0611,66.47,81,0,10.38,MX,1634890768
211,berdigestyakh,62.0989,126.6992,33.13,82,100,8.63,RU,1634890768
212,williams lake,52.1415,-122.1445,53.17,56,90,7.0,CA,1634890769
213,whitehorse,60.7161,-135.0538,39.31,64,100,4.0,CA,1634890513
214,semirom,31.4167,51.5667,54.43,36,0,5.01,IR,1634890769
215,sept-iles,50.2001,-66.3821,46.92,96,90,10.0,CA,1634890770
216,lompoc,34.6391,-120.4579,61.12,91,90,5.99,US,1634890770
217,birao,10.2849,22.7882,85.05,55,22,5.53,CF,1634890771
218,sangar,63.9242,127.4739,26.85,91,100,12.24,RU,1634890771
219,roebourne,-20.7833,117.1333,94.19,23,21,12.71,AU,1634890772
220,xingyi,24.1877,102.817,47.01,96,100,3.38,CN,1634890772
221,astara,38.5,48.6667,62.58,60,0,5.95,AZ,1634890772
222,sur,22.5667,59.5289,88.25,53,6,10.54,OM,1634890773
223,tautira,-17.7333,-149.15,77.02,81,52,13.0,PF,1634890773
224,padang,-0.9492,100.3543,86.05,74,98,6.04,ID,1634890774
225,ulaangom,49.9811,92.0667,45.52,38,4,4.85,MN,1634890774
226,kandrian,-6.2167,149.55,80.69,80,69,7.23,PG,1634890775
227,sao filipe,14.8961,-24.4956,80.67,63,0,5.12,CV,1634890775
228,coquimbo,-29.9533,-71.3436,51.53,87,20,2.3,CL,1634890776
229,caravelas,-17.7125,-39.2481,72.0,90,100,6.26,BR,1634890776
230,rafaela,-31.2503,-61.4867,62.06,61,0,4.0,AR,1634890776
231,ixtapa,20.7,-105.2,76.01,96,87,2.01,MX,1634890777
232,port augusta,-32.5,137.7667,77.7,50,99,13.31,AU,1634890777
233,maragogi,-9.0122,-35.2225,75.27,90,27,6.6,BR,1634890778
234,rocha,-34.4833,-54.3333,50.0,94,31,6.51,UY,1634890778
235,ancud,-41.8697,-73.8203,44.13,88,68,5.37,CL,1634890778
236,qasigiannguit,68.8193,-51.1922,7.02,90,20,5.86,GL,1634890779
237,kashi,39.4547,75.9797,56.41,41,75,13.42,CN,1634890779
238,portland,45.5234,-122.6762,55.44,94,90,1.99,US,1634890356
239,shima,24.4478,117.8111,70.21,80,100,3.49,CN,1634890780
240,longyearbyen,78.2186,15.6401,19.24,86,75,9.22,SJ,1634890780
241,lagoa,39.05,-27.9833,67.14,72,96,7.27,PT,1634890781
242,tongzi,28.7829,105.0877,56.73,87,100,3.0,CN,1634890781
243,vagur,61.4732,-6.8119,43.09,56,17,14.54,FO,1634890781
244,vila velha,-20.3297,-40.2925,66.15,94,90,0.0,BR,1634890782
245,asau,46.4333,26.4,63.95,55,98,9.17,RO,1634890782
246,gamba,-2.65,10.0,77.29,84,99,5.64,GA,1634890783
247,teya,60.3778,92.6267,47.1,65,85,7.23,RU,1634890783
248,maiduguri,11.8464,13.1603,86.81,49,29,3.49,NG,1634890784
249,cockburn town,21.4612,-71.1419,83.08,77,11,18.34,TC,1634890784
250,tura,25.5198,90.2201,79.27,48,3,3.15,IN,1634890784
251,saint-augustin,51.226,-58.6502,34.57,79,14,6.02,CA,1634890785
252,tiksi,71.6872,128.8694,6.58,97,100,4.76,RU,1634890785
253,havelock,34.8791,-76.9013,72.95,87,90,1.01,US,1634890786
254,gimli,50.6336,-96.9907,33.82,86,97,6.91,CA,1634890786
255,pec,42.6591,20.2883,52.09,72,67,2.82,XK,1634890786
256,usinsk,65.9939,57.5281,30.25,95,100,14.14,RU,1634890787
257,vestmanna,62.1564,-7.1664,38.32,75,75,13.8,FO,1634890787
258,roseburg,43.2165,-123.3417,53.71,95,90,0.0,US,1634890788
259,taungdwingyi,20.0167,95.55,84.02,78,91,7.18,MM,1634890788
260,nerekhta,57.4588,40.5747,55.29,72,75,19.39,RU,1634890788
261,cidreira,-30.1811,-50.2056,59.32,91,3,4.92,BR,1634890789
262,kenai,60.5544,-151.2583,39.15,96,1,9.22,US,1634890789
263,ternate,0.8,127.4,83.41,71,88,5.86,ID,1634890790
264,ciudad bolivar,8.1222,-63.5497,75.04,92,99,4.65,VE,1634890790
265,kristiansund,63.1115,7.732,45.25,70,75,17.27,NO,1634890791
266,bethel,41.3712,-73.414,65.48,84,1,10.36,US,1634890763
267,coihaique,-45.5752,-72.0662,33.75,93,0,2.3,CL,1634890682
268,taltal,-25.4,-70.4833,56.53,74,1,3.78,CL,1634890791
269,srednekolymsk,67.45,153.6833,-7.67,97,71,5.57,RU,1634890792
270,goderich,43.7501,-81.7165,46.9,70,78,8.05,CA,1634890762
271,kemijarvi,66.7131,27.4306,30.22,86,100,15.84,FI,1634890793
272,hovd,48.0056,91.6419,47.12,28,1,3.83,MN,1634890634
273,bani walid,31.7566,13.9942,73.42,40,73,9.28,LY,1634890793
274,waipawa,-41.4122,175.5153,51.46,81,69,6.87,NZ,1634890794
275,anadyr,64.75,177.4833,21.7,86,40,8.95,RU,1634890794
276,mecca,21.4267,39.8261,98.08,15,8,7.34,SA,1634890509
277,rexburg,43.826,-111.7897,41.29,81,1,5.75,US,1634890795
278,tucupita,9.0622,-62.051,72.32,100,100,2.42,VE,1634890795
279,soyo,-6.1349,12.3689,78.46,78,100,5.61,AO,1634890795
280,harper,4.375,-7.7169,78.44,85,100,6.06,LR,1634890796
281,aitape,-3.1374,142.3475,81.09,79,46,5.26,PG,1634890796
282,leh,34.1667,77.5833,46.9,21,92,11.68,IN,1634890797
283,la romana,18.4273,-68.9728,82.13,90,21,6.8,DO,1634890603
284,porto novo,6.4965,2.6036,80.42,73,74,0.98,BJ,1634890797
285,korla,41.7597,86.1469,64.9,19,2,16.04,CN,1634890798
286,chapais,49.7834,-74.8492,37.18,97,100,10.87,CA,1634890664
287,doha,25.2867,51.5333,91.71,37,0,20.71,QA,1634890798
288,wamba,8.9333,8.6,77.16,77,100,1.79,NG,1634890799
289,leningradskiy,69.3833,178.4167,4.44,88,100,10.74,RU,1634890799
290,san antonio,29.4241,-98.4936,70.29,88,1,0.0,US,1634890510
291,mehamn,71.0357,27.8492,35.78,66,100,19.62,NO,1634890800
292,itarema,-2.9248,-39.9167,76.93,89,100,8.23,BR,1634890800
293,ambunti,-4.2365,142.8448,76.23,95,91,3.49,PG,1634890801
294,zhigansk,66.7697,123.3711,13.44,94,100,5.17,RU,1634890801
295,miraflores,19.2167,-98.8083,59.04,90,100,3.44,MX,1634890802
296,pizarro,4.9533,-77.366,74.43,92,52,4.88,CO,1634890803
297,katangli,51.7102,143.2326,30.87,87,45,9.28,RU,1634890804
298,saint anthony,45.0205,-93.218,37.02,83,1,1.01,US,1634890510
299,abalak,58.1286,68.5944,34.95,83,100,11.68,RU,1634890805
300,jonava,55.0833,24.2833,45.12,83,90,8.99,LT,1634890805
301,coos bay,43.3665,-124.2179,54.93,100,1,5.75,US,1634890805
302,payyannur,12.1,75.2,86.56,67,77,7.47,IN,1634890806
303,slave lake,55.2834,-114.769,31.98,80,1,17.27,CA,1634890806
304,bela,25.9333,81.9833,87.46,37,0,8.88,IN,1634890807
305,klaksvik,62.2266,-6.589,40.12,60,93,18.79,FO,1634890807
306,chicama,-7.8447,-79.1469,63.25,89,88,4.99,PE,1634890808
307,xinqing,48.2333,129.5,40.42,50,8,3.8,CN,1634890808
308,kashira,54.8444,38.1669,55.74,72,55,19.28,RU,1634890808
309,riyadh,24.6877,46.7219,84.34,24,0,4.03,SA,1634890711
310,vostok,46.4856,135.8833,28.2,83,84,2.75,RU,1634890809
311,necochea,-38.5473,-58.7368,54.03,97,100,6.69,AR,1634890809
312,coahuayana,18.7333,-103.6833,77.79,91,97,2.8,MX,1634890810
313,haimen,23.1935,116.6142,66.09,77,100,11.92,CN,1634890810
314,luderitz,-26.6481,15.1594,63.09,65,15,13.09,NA,1634890811
315,fairbanks,64.8378,-147.7164,24.76,82,1,0.0,US,1634890811
316,enniscorthy,52.5008,-6.5578,49.57,81,100,7.18,IE,1634890811
317,yelbarga,15.6333,76.0167,83.64,42,96,4.09,IN,1634890812
318,adrar,20.5022,-10.0711,70.38,30,16,8.39,MR,1634890812
319,bengkulu,-3.8004,102.2655,81.9,75,100,5.39,ID,1634890813
320,banda aceh,5.5577,95.3222,82.89,72,93,4.0,ID,1634890813
321,morgan city,29.6994,-91.2068,71.01,93,29,2.19,US,1634890814
322,tromso,69.6496,18.957,35.38,69,75,4.0,NO,1634890814
323,zapolyarnyy,69.4154,30.8136,31.28,74,81,19.75,RU,1634890814
324,dingle,10.9995,122.6711,81.32,86,99,8.16,PH,1634890815
325,perry,37.2506,-83.1999,55.54,97,1,2.3,US,1634890815
326,aksarka,66.5606,67.7975,31.01,86,100,10.47,RU,1634890816
327,vanavara,60.34,102.2797,44.56,60,71,8.21,RU,1634890816
328,san carlos de bariloche,-41.1456,-71.3082,34.7,90,77,3.85,AR,1634890816
329,alice springs,-23.7,133.8833,96.35,14,15,9.22,AU,1634890817
330,yuzhne,46.6221,31.1013,64.62,51,41,7.65,UA,1634890817
331,undory,54.6085,48.3928,52.84,66,100,19.48,RU,1634890760
332,port lincoln,-34.7333,135.8667,60.08,67,9,13.98,AU,1634890818
333,linxia,35.6003,103.2064,57.7,47,5,6.38,CN,1634890818
334,rodrigues alves,-7.738,-72.6509,72.28,92,88,2.89,BR,1634890819
335,milledgeville,33.0801,-83.2321,66.49,95,99,4.52,US,1634890552
336,aberdeen,57.1437,-2.0981,44.2,82,20,11.5,GB,1634890548
337,metro,-5.1131,105.3067,88.9,54,100,7.0,ID,1634890819
338,karratha,-20.7377,116.8463,92.28,27,14,14.99,AU,1634890820
339,rio claro,-22.4114,-47.5614,52.81,90,0,3.15,BR,1634890820
340,haines junction,60.7522,-137.5108,30.15,93,100,1.14,CA,1634890821
341,kavaratti,10.5669,72.642,82.24,75,69,2.44,IN,1634890821
342,termiz,37.2242,67.2783,59.09,17,0,20.71,UZ,1634890821
343,buta,2.7858,24.73,73.96,84,100,3.02,CD,1634890822
344,katsuura,35.1333,140.3,55.51,93,100,18.84,JP,1634890822
345,bonavista,48.6499,-53.1147,42.12,79,7,15.03,CA,1634890823
346,jieznas,54.6,24.1667,44.65,67,98,22.32,LT,1634890823
347,wiang sa,8.6359,99.3666,89.1,75,100,3.31,TH,1634890824
348,comodoro rivadavia,-45.8667,-67.5,48.06,43,0,6.91,AR,1634890806
349,ambilobe,-13.2,49.05,94.1,37,96,7.49,MG,1634890824
350,okhotsk,59.3833,143.3,19.8,78,100,2.53,RU,1634890825
351,bestobe,52.4994,73.0975,42.39,39,100,26.22,KZ,1634890825
352,sorland,67.667,12.6934,40.96,57,100,18.23,NO,1634890825
353,iisalmi,63.5592,27.1907,37.42,96,100,14.58,FI,1634890578
354,daura,11.5538,11.4085,84.67,52,15,6.11,NG,1634890826
355,candolim,15.5181,73.7626,84.94,59,31,7.45,IN,1634890826
356,bonthe,7.5264,-12.505,78.44,85,95,0.72,SL,1634890827
357,umm lajj,25.0213,37.2685,85.93,47,3,14.94,SA,1634890827
358,nogales,31.3086,-110.9422,64.89,43,1,5.75,MX,1634890828
359,coldingham,55.8868,-2.157,47.59,68,80,18.68,GB,1634890828
360,north bend,43.4065,-124.2243,54.86,100,1,5.75,US,1634890829
361,zavoronezhskoye,52.8801,40.5526,52.57,72,100,17.31,RU,1634890829
362,berlin,52.5244,13.4105,48.04,77,20,20.0,DE,1634890807
363,kahului,20.8947,-156.47,76.84,80,1,10.36,US,1634890688
364,ler,8.3018,30.1418,87.67,56,15,4.21,SS,1634890830
365,lamar,33.6668,-95.5836,57.52,67,1,6.91,US,1634890830
366,madimba,-10.4,40.3333,82.85,60,52,11.56,TZ,1634890831
367,tabou,4.423,-7.3528,78.12,86,97,5.57,CI,1634890831
368,tampin,2.4701,102.2302,87.22,78,100,3.53,MY,1634890831
369,sao gabriel da cachoeira,-0.1303,-67.0892,69.85,98,98,2.15,BR,1634890832
370,baherden,38.4362,57.4316,61.34,25,4,12.55,TM,1634890832
371,pucallpa,-8.3791,-74.5539,72.73,86,32,1.05,PE,1634890833
372,mulege,26.8833,-111.9833,72.95,59,0,4.25,MX,1634890833
373,merauke,-8.4667,140.3333,83.48,74,85,13.6,ID,1634890834
374,kanniyakumari,8.0833,77.5667,83.5,72,30,10.07,IN,1634890834
375,khorixas,-20.3667,14.9667,73.78,16,11,5.12,NA,1634890834
376,casper,42.8666,-106.3131,52.5,67,1,5.01,US,1634890835
377,arbagar,51.9438,116.2805,39.0,71,14,4.81,RU,1634890835
378,unai,-16.3575,-46.9061,69.57,91,51,1.99,BR,1634890836
379,clyde,41.3042,-82.9752,52.11,86,100,11.41,US,1634890836
380,esperance,-33.8667,121.9,60.42,56,44,10.38,AU,1634890836
381,ust-maya,60.4167,134.5333,31.75,90,93,7.67,RU,1634890837
382,chara,56.9064,118.2631,36.5,78,100,1.57,RU,1634890837
383,chapada dos guimaraes,-15.4606,-55.7497,74.86,73,35,4.9,BR,1634890838
384,sorong,-0.8833,131.25,79.86,85,100,10.56,ID,1634890838
385,kibre mengist,5.8833,38.9833,74.82,43,61,8.08,ET,1634890839
386,rock sound,24.9,-76.2,81.23,73,100,16.24,BS,1634890839
387,monte santo,-10.4378,-39.3328,70.52,92,95,4.29,BR,1634890839
388,afyonkarahisar,38.75,30.6667,54.66,50,0,4.61,TR,1634890840
389,terrace,54.5163,-128.6035,43.43,100,75,4.61,CA,1634890840
390,markova,48.6758,24.4138,60.39,55,3,12.66,UA,1634890841
391,natal,-5.795,-35.2094,79.02,89,40,4.61,BR,1634890735
392,flinders,-34.5833,150.8552,69.21,75,1,6.26,AU,1634890841
393,huarmey,-10.0681,-78.1522,62.96,89,78,8.19,PE,1634890842
394,barao de melgaco,-16.1944,-55.9675,82.92,63,15,4.29,BR,1634890842
395,marsh harbour,26.5412,-77.0636,79.23,77,18,12.44,BS,1634890843
396,poum,-20.2333,164.0167,75.7,72,0,6.2,NC,1634890843
397,bagdarin,54.4333,113.6,38.3,64,18,2.73,RU,1634890843
398,malanje,-9.5402,16.341,71.98,88,75,5.75,AO,1634890844
399,nanortalik,60.1432,-45.2371,38.46,85,100,9.08,GL,1634890844
400,college,64.8569,-147.8028,24.75,82,20,4.61,US,1634890844
401,sitka,57.0531,-135.33,53.49,58,40,11.5,US,1634890845
402,port moresby,-9.4431,147.1797,81.82,78,40,11.5,PG,1634890845
403,ghauspur,28.1391,69.0831,93.09,23,0,7.67,PK,1634890846
404,evensk,61.95,159.2333,6.1,78,7,7.07,RU,1634890846
405,santa lucia,27.9117,-15.5407,64.11,82,75,17.27,ES,1634890847
406,urubicha,-15.3833,-62.95,75.18,75,44,2.95,BO,1634890847
407,sheridan,44.8333,-106.9173,51.98,67,1,3.44,US,1634890847
408,bahia blanca,-38.7196,-62.2724,52.5,79,92,5.93,AR,1634890848
409,kiama,-34.6833,150.8667,67.44,77,1,5.99,AU,1634890848
410,bocas del toro,9.3333,-82.25,78.08,84,52,6.11,PA,1634890849
411,anloga,5.7947,0.8973,81.45,80,92,9.46,GH,1634890849
412,beringovskiy,63.05,179.3167,18.37,93,100,16.06,RU,1634890850
413,sayyan,15.1718,44.3244,66.0,25,77,18.68,YE,1634890850
414,simpang,-1.2667,104.0833,86.34,67,97,4.23,ID,1634890850
415,zinder,13.8072,8.9881,89.56,48,5,3.44,NE,1634890851
416,kuching,1.55,110.3333,80.82,83,40,0.0,MY,1634890851
417,ulcinj,41.9294,19.2244,66.11,79,100,5.17,ME,1634890733
418,trinidad,-14.8333,-64.9,77.36,69,49,3.83,BO,1634890694
419,popondetta,-8.7537,148.2534,74.44,94,100,0.89,PG,1634890852
420,bogorodskoye,56.55,37.8833,51.8,65,13,16.28,RU,1634890852
421,marquette,46.5333,-87.6335,35.76,92,89,4.9,US,1634890853
422,puerto escondido,15.85,-97.0667,77.43,88,100,5.68,MX,1634890853
423,artsvanist,40.1544,45.5022,50.94,32,0,1.1,AM,1634890854
424,hualmay,-11.0964,-77.6139,61.68,89,56,8.52,PE,1634890854
425,turayf,31.6725,38.6637,75.45,31,0,20.71,SA,1634890854
426,vangaindrano,-23.35,47.6,74.16,67,94,7.29,MG,1634890855
427,vetluzhskiy,58.3902,45.4654,50.23,85,100,12.26,RU,1634890855
428,arlit,18.7369,7.3853,92.08,12,0,9.48,NE,1634890856
429,russell,32.3502,-85.1999,65.97,91,75,10.36,US,1634890857
430,salalah,17.0151,54.0924,84.29,54,0,11.5,OM,1634890857
431,kutahya,39.4242,29.9833,53.55,37,1,3.8,TR,1634890858
432,qarqin,37.4185,66.0436,58.37,18,0,15.97,AF,1634890858
433,vanimo,-2.6741,141.3028,80.71,80,96,3.42,PG,1634890858
434,mahibadhoo,3.7833,72.9667,82.18,70,9,9.06,MV,1634890859
435,nyurba,63.2842,118.3319,34.59,95,100,4.38,RU,1634890859
436,kloulklubed,7.0419,134.2556,84.7,70,20,9.42,PW,1634890860
437,qui nhon,13.7667,109.2333,82.89,77,83,15.23,VN,1634890860
438,hanyang,32.1371,105.5126,55.18,77,100,6.73,CN,1634890860
439,payakumbuh,-0.2202,100.6308,81.75,72,100,2.33,ID,1634890861
440,nelson bay,-32.7167,152.15,69.76,81,18,10.02,AU,1634890861
441,kalmunai,7.4167,81.8167,85.86,69,90,9.44,LK,1634890862
442,barda,40.3744,47.1267,61.88,46,0,2.35,AZ,1634890863
443,turukhansk,65.8167,87.9833,35.83,93,100,4.18,RU,1634890863
444,george,-33.963,22.4617,62.15,82,40,11.5,ZA,1634890863
445,lasa,46.6166,10.7002,49.69,77,36,2.26,IT,1634890864
446,acarau,-2.8856,-40.12,76.95,89,100,8.23,BR,1634890864
447,ilebo,-4.3167,20.5833,82.78,62,100,2.91,CD,1634890865
448,rantepao,-2.9701,119.8978,77.49,76,92,2.44,ID,1634890865
449,keetmanshoop,-26.5833,18.1333,61.72,31,0,8.7,NA,1634890866
450,valparaiso,-33.0393,-71.6273,53.24,93,90,4.61,CL,1634890866
451,monrovia,6.3005,-10.7969,76.77,81,100,2.42,LR,1634890866
452,damaturu,11.747,11.9608,87.67,48,5,6.91,NG,1634890867
453,nakambala,-15.8324,27.7799,86.36,31,6,7.16,ZM,1634890867
454,hokitika,-42.7167,170.9667,54.88,80,100,0.31,NZ,1634890868
455,derzhavinsk,51.1,66.3167,33.82,96,100,25.5,KZ,1634890868
456,beni mazar,28.4962,30.8029,74.79,52,0,14.34,EG,1634890868
457,patos de minas,-18.5789,-46.5181,63.72,88,0,2.01,BR,1634890869
458,constantine,36.365,6.6147,60.21,47,0,4.61,DZ,1634890741
459,buala,-8.145,159.5921,81.32,79,100,5.93,SB,1634890870
460,cayenne,4.9333,-52.3333,80.1,88,20,1.99,GF,1634890870
461,celestun,20.8667,-90.4,75.54,86,99,6.2,MX,1634890871
462,tuatapere,-46.1333,167.6833,48.49,86,62,0.34,NZ,1634890871
463,kalashnikovo,57.2824,35.2262,45.14,74,57,15.77,RU,1634890871
464,majene,-3.5403,118.9707,86.13,65,84,6.91,ID,1634890872
465,grand-santi,4.25,-54.3833,71.15,100,100,2.06,GF,1634890872
466,high rock,26.6208,-78.2833,75.22,77,21,11.21,BS,1634890873
467,constitucion,-35.3333,-72.4167,48.81,80,1,8.37,CL,1634890578
468,batticaloa,7.7102,81.6924,85.51,69,65,11.03,LK,1634890873
469,atar,20.5169,-13.0499,74.8,16,83,6.6,MR,1634890874
470,basar,27.9833,94.6667,80.06,48,3,3.51,IN,1634890874
471,ornskoldsvik,63.2909,18.7153,35.42,100,90,12.66,SE,1634890874
472,black river,18.0264,-77.8487,75.97,84,20,4.0,JM,1634890875
473,hobyo,5.3505,48.5268,82.98,65,28,10.04,SO,1634890875
474,aykhal,66.0,111.5,30.43,97,100,8.95,RU,1634890876
475,charlestown,-32.95,151.6667,68.83,81,0,1.01,AU,1634890876
476,lohardaga,23.4333,84.6833,84.06,41,0,8.86,IN,1634890876
477,saint-denis,48.9167,2.3333,47.08,88,0,3.44,FR,1634890877
478,jalingo,8.8833,11.3667,84.52,62,94,2.66,NG,1634890877
479,biak,-0.9131,122.8766,80.33,77,100,4.56,ID,1634890878
480,nouadhibou,20.931,-17.0347,69.78,78,5,11.5,MR,1634890878
481,mapiri,-15.25,-68.1667,70.2,84,63,1.59,BO,1634890878
482,troitsko-pechorsk,62.7084,56.1964,35.19,95,100,6.04,RU,1634890879
483,sulecin,52.4443,15.1168,48.07,68,98,17.52,PL,1634890880
484,ndende,-2.4008,11.3581,80.49,96,100,0.54,GA,1634890880
485,srivardhan,18.0333,73.0167,86.38,48,8,6.38,IN,1634890881
486,sokoni,-6.4333,39.55,79.88,66,52,9.78,TZ,1634890881
487,bandarbeyla,9.4942,50.8122,84.36,55,6,9.75,SO,1634890881
488,brandfort,-28.7001,26.4597,62.01,50,98,26.6,ZA,1634890882
489,beyneu,45.3167,55.2,57.9,45,26,15.55,KZ,1634890882
490,lagos,6.5833,3.75,82.72,77,93,2.15,NG,1634890883
491,gongzhuling,43.5008,124.8198,53.11,40,0,6.22,CN,1634890883
492,camabatela,-8.1881,15.375,65.75,94,100,2.39,AO,1634890883
493,palana,59.1167,159.9667,21.76,86,100,6.22,RU,1634890884
494,iwata,34.7,137.85,64.02,69,100,1.99,JP,1634890884
495,basoko,1.2391,23.616,73.47,90,100,2.95,CD,1634890885
496,husavik,66.0449,-17.3389,26.51,80,100,14.14,IS,1634890885
497,baykit,61.67,96.37,41.49,77,93,3.49,RU,1634890885
498,mahaplag,10.5788,124.9753,78.06,88,100,3.36,PH,1634890886
499,hasaki,35.7333,140.8333,54.28,86,100,22.03,JP,1634890886
500,xai-xai,-25.0519,33.6442,83.82,41,100,11.56,MZ,1634890887
501,ust-koksa,50.2696,85.6108,50.59,52,100,5.26,RU,1634890887
502,hamilton,39.1834,-84.5333,52.39,88,90,0.0,US,1634890888
503,bull savanna,17.8868,-77.5902,75.9,86,50,7.56,JM,1634890888
504,santa cruz,-17.8,-63.1667,76.46,78,20,4.61,BO,1634890888
505,broome,42.2506,-75.833,56.77,78,75,4.0,US,1634890889
506,fuerte olimpo,-21.0415,-57.8738,70.38,63,3,4.14,PY,1634890889
507,emerald,-23.5333,148.1667,86.14,26,75,21.85,AU,1634890890
508,marabba,12.35,32.1833,94.03,31,89,2.39,SD,1634890890
509,pierre,44.3683,-100.351,43.86,79,20,1.99,US,1634890480
510,los llanos de aridane,28.6585,-17.9182,69.55,72,40,1.99,ES,1634890891
511,pachperwa,27.5167,82.65,83.75,54,10,5.79,IN,1634890891
512,baran,25.1,76.5167,86.2,39,0,5.99,IN,1634890892
513,vardo,70.3705,31.1107,30.4,61,100,23.55,NO,1634890839
514,olinda,-8.0089,-34.8553,80.33,74,40,5.75,BR,1634890892
515,jacareacanga,-6.2222,-57.7528,71.78,98,100,1.59,BR,1634890893
516,yulin,22.6333,110.15,58.48,81,100,8.28,CN,1634890779
517,oktyabrskiy,54.4815,53.471,52.29,76,100,18.45,RU,1634890893
518,seoul,37.5683,126.9778,60.37,36,0,9.22,KR,1634890894
519,moravska trebova,49.7579,16.6643,51.73,70,0,4.0,CZ,1634890894
520,quang ngai,15.1167,108.8,81.05,83,54,10.74,VN,1634890895
521,middlebury,44.0153,-73.1673,59.43,95,100,1.99,US,1634890895
522,shetpe,44.1667,52.1167,60.84,57,6,23.78,KZ,1634890896
523,ponnani,10.767,75.9252,90.72,77,71,8.34,IN,1634890896
524,marsa matruh,31.3525,27.2453,70.0,60,40,9.22,EG,1634890896
525,sinnamary,5.3833,-52.95,78.85,85,100,8.86,GF,1634890897
526,angoche,-16.2325,39.9086,81.46,48,28,8.57,MZ,1634890897
527,porosozero,62.7191,32.727,40.37,97,100,11.48,RU,1634890815
528,lorengau,-2.0226,147.2712,80.67,73,100,7.52,PG,1634890898
529,maldonado,-34.6667,-54.9167,57.22,90,37,6.22,UY,1634890898
530,astrea,9.4983,-73.9759,71.62,98,37,0.89,CO,1634890899
531,hatillo,18.4863,-66.8254,79.9,92,14,6.67,PR,1634890899
532,camajuani,22.4833,-79.75,75.34,100,90,0.0,CU,1634890899
533,puro,12.4841,123.3827,85.62,70,100,11.56,PH,1634890900
534,egvekinot,66.3167,-179.1667,9.75,93,71,6.82,RU,1634890900
535,san cristobal,7.7669,-72.225,64.27,98,34,2.17,VE,1634890901
536,zirgan,53.2222,55.9185,50.0,80,100,15.19,RU,1634890901
537,tres arroyos,-38.3739,-60.2798,50.0,98,100,4.25,AR,1634890901
538,collie,-33.3667,116.15,64.98,45,6,9.08,AU,1634890902
539,rampur,28.8167,79.0333,83.73,37,0,5.86,IN,1634890902
540,caruray,10.3094,119.0128,84.09,77,88,3.11,PH,1634890903
541,zhicheng,30.2956,111.5047,66.69,43,65,5.39,CN,1634890903
542,fasa,28.9383,53.6482,78.04,14,0,4.61,IR,1634890903
543,axim,4.8699,-2.2405,80.71,78,100,6.17,GH,1634890904
544,hungen,50.4737,8.8933,45.28,90,5,8.99,DE,1634890904
545,saint-raymond,45.467,-73.6095,59.09,96,90,3.44,CA,1634890905
546,floro,61.5996,5.0328,46.36,71,40,24.16,NO,1634890905
547,aketi,2.7388,23.7833,81.41,61,64,3.29,CD,1634890905
548,isla mujeres,21.2311,-86.731,73.45,77,71,6.33,MX,1634890906
549,tokmak,47.2514,35.7058,62.46,61,0,15.66,UA,1634890906
550,yaan,7.3833,8.5667,73.63,94,100,3.87,NG,1634890907
551,pundaguitan,6.3711,126.1689,83.91,68,100,6.49,PH,1634890907
552,santa catarina de tepehuanes,25.35,-105.7333,55.11,91,1,1.95,MX,1634890907
