,City,Lat,Lng,Max Temp,Humidity,Cloudiness,Wind Speed,Country,Date
0,Busselton,-33.65,115.3333,56.05,79,100,10.02,AU,1635117563
1,Rikitea,-23.1203,-134.9692,74.82,77,38,15.75,PF,1635117726
2,Kudahuvadhoo,2.6708,72.8944,82.4,74,27,15.14,MV,1635117727
3,Thompson,55.7435,-97.8558,32.16,86,75,2.3,CA,1635117728
4,Economy,40.6001,-80.2248,59.77,96,90,1.99,US,1635117730
5,Bambous Virieux,-20.3428,57.7575,74.21,78,40,11.5,MU,1635117731
6,Ushuaia,-54.8,-68.3,33.46,80,75,25.32,AR,1635117733
7,Yellowknife,62.456,-114.3525,42.42,85,75,20.71,CA,1635117448
8,Iqaluit,63.7506,-68.5145,29.93,86,90,5.99,CA,1635117735
9,Shimoda,34.6667,138.95,61.16,63,92,14.92,JP,1635117737
10,Tessalit,20.1986,1.0114,85.32,20,33,9.69,ML,1635117730
11,Nanortalik,60.1432,-45.2371,32.88,98,100,3.83,GL,1635117739
12,Port Elizabeth,-33.918,25.5701,51.1,93,0,3.44,ZA,1635117538
13,Borogontsy,62.6683,131.1683,27.34,98,100,3.27,RU,1635117742
14,Punta Arenas,-53.15,-70.9167,42.91,49,40,24.16,CL,1635117742
15,Qaanaaq,77.484,-69.3632,-5.4,62,0,11.59,GL,1635117745
16,Los Llanos De Aridane,28.6585,-17.9182,67.75,89,90,11.5,ES,1635117746
17,Kapaa,22.0752,-159.319,84.18,73,20,4.0,US,1635117476
18,Mar Del Plata,-38.0023,-57.5575,60.82,51,0,11.5,AR,1635117583
19,Springbok,-29.6643,17.8865,58.96,29,0,9.95,ZA,1635117750
20,Vilyuysk,63.7553,121.6247,30.52,99,100,3.6,RU,1635117751
21,Leningradskiy,69.3833,178.4167,7.68,90,100,6.93,RU,1635117753
22,Khatanga,71.9667,102.5,0.32,89,78,16.26,RU,1635117608
23,Hobart,-42.8794,147.3294,52.05,77,75,3.0,AU,1635117554
24,Mataura,-46.1927,168.8643,62.17,66,97,3.76,NZ,1635117631
25,Port Alfred,-33.5906,26.891,58.5,76,9,11.68,ZA,1635117611
26,Hithadhoo,-0.6,73.0833,82.54,73,72,15.86,MV,1635117759
27,Ostrovnoy,68.0531,39.5131,34.7,70,65,22.59,RU,1635117760
28,Biak,-0.9131,122.8766,79.5,68,71,2.42,ID,1635117696
29,Saint-Philippe,-21.3585,55.7679,72.99,85,48,16.33,RE,1635117640
30,Lompoc,34.6391,-120.4579,70.02,82,90,6.91,US,1635117608
31,Vaini,-21.2,-175.2,78.96,78,20,14.97,TO,1635117765
32,Nikolskoye,59.7035,30.7861,35.02,78,88,7.09,RU,1635117767
33,Acarau,-2.8856,-40.12,80.4,74,7,15.26,BR,1635117768
34,Walvis Bay,-22.9575,14.5053,59.09,88,0,8.05,NA,1635117770
35,Sao Filipe,14.8961,-24.4956,78.1,71,46,11.54,CV,1635117771
36,Jamestown,42.097,-79.2353,51.12,98,90,4.0,US,1635117749
37,Henties Bay,-22.116,14.2845,58.86,89,0,5.12,NA,1635117774
38,Butaritari,3.0707,172.7902,81.55,72,38,3.49,KI,1635117775
39,Ponta Delgada,37.7333,-25.6667,65.12,72,40,5.75,PT,1635117777
40,Boksitogorsk,59.474,33.8485,24.6,87,33,4.38,RU,1635117778
41,Mana,5.6592,-53.7767,78.46,90,99,9.73,GF,1635117779
42,Lebu,-37.6167,-73.65,54.1,90,12,6.91,CL,1635117781
43,Kahului,20.8947,-156.47,85.96,70,40,20.71,US,1635117782
44,Jalu,29.0331,21.5482,73.24,32,17,12.08,LY,1635117784
45,Cape Town,-33.9258,18.4232,58.08,70,0,3.0,ZA,1635117785
46,Hamburg,53.55,10.0,44.02,88,0,5.75,DE,1635117584
47,Macherla,16.4833,79.4333,70.88,77,93,2.13,IN,1635117788
48,Chokurdakh,70.6333,147.9167,-6.75,99,100,2.77,RU,1635117623
49,Swan Hill,-35.3378,143.5544,56.26,40,0,10.27,AU,1635117792
50,Albany,42.6001,-73.9662,52.21,77,95,2.75,US,1635117694
51,Fort Beaufort,-32.7748,26.6338,49.37,88,39,2.64,ZA,1635117794
52,Bluff,-46.6,168.3333,55.4,88,96,5.12,NZ,1635117612
53,Chicama,-7.8447,-79.1469,59.54,73,25,6.89,PE,1635117640
54,Touros,-5.1989,-35.4608,81.5,72,23,14.36,BR,1635117798
55,Arlit,18.7369,7.3853,82.02,12,2,2.21,NE,1635117800
56,Boguchar,49.9358,40.545,40.06,75,67,12.62,RU,1635117801
57,Kaitangata,-46.2817,169.8464,61.54,68,92,4.72,NZ,1635117802
58,Catalina Foothills,32.2979,-110.9187,87.89,23,1,5.01,US,1635117727
59,Puerto Ayora,-0.7393,-90.3518,70.05,87,100,10.33,EC,1635117611
60,Opuwo,-18.0607,13.84,68.02,23,2,8.01,NA,1635117806
61,Skibbereen,51.55,-9.2667,49.8,79,14,16.42,IE,1635117808
62,Madimba,-10.4,40.3333,76.12,91,18,7.31,TZ,1635117809
63,Lorengau,-2.0226,147.2712,82.36,80,71,8.84,PG,1635117810
64,Tiksi,71.6872,128.8694,-0.47,100,100,4.16,RU,1635117646
65,Villazon,-22.0866,-65.5942,46.11,51,64,14.85,BO,1635117814
66,Vila Velha,-20.3297,-40.2925,80.55,78,20,12.66,BR,1635117647
67,Tarbagatay,51.4803,107.3602,24.33,82,42,4.5,RU,1635117818
68,Atuona,-9.8,-139.0333,78.12,73,3,18.32,PF,1635117622
69,Umtata,-31.5889,28.7844,49.17,93,68,3.31,ZA,1635117821
70,Taoudenni,22.6783,-3.9836,86.04,17,10,9.89,ML,1635117822
71,Loandjili,-4.7561,11.8578,78.91,89,20,11.5,CG,1635117823
72,Buraydah,26.326,43.975,72.05,29,0,6.17,SA,1635117825
73,Rawson,-43.3002,-65.1023,70.27,27,100,35.68,AR,1635117826
74,Geraldton,-28.7667,114.6,66.13,82,100,5.75,AU,1635117829
75,Kruisfontein,-34.0033,24.7314,47.88,82,0,3.24,ZA,1635117830
76,Santa Fe,-31.6333,-60.7,72.99,39,0,1.99,AR,1635117678
77,Margate,51.3813,1.3862,58.3,90,95,1.99,GB,1635117833
78,Huejuquilla El Alto,22.6,-103.8667,76.32,31,99,1.66,MX,1635117678
79,Kisangani,0.5167,25.2,70.23,99,100,1.99,CD,1635117835
80,Tomatlan,19.9333,-105.25,86.11,71,89,8.12,MX,1635117626
81,Cidreira,-30.1811,-50.2056,61.77,65,0,5.97,BR,1635117838
82,Dikson,73.5069,80.5464,9.43,89,100,17.69,RU,1635117841
83,Rawa Mazowiecka,51.7644,20.2549,39.7,73,59,7.65,PL,1635117842
84,Okha,53.5739,142.9478,38.97,89,62,11.79,RU,1635117844
85,Newport,51.5877,-2.9984,55.94,90,27,13.29,GB,1635117845
86,Mende,44.6667,3.5,37.51,94,0,2.01,FR,1635117848
87,Ponta Do Sol,32.6667,-17.1,70.72,71,97,6.13,PT,1635117849
88,Peniche,39.3558,-9.3811,61.61,91,21,6.42,PT,1635117648
89,Morondava,-20.2833,44.2833,72.36,61,0,4.79,MG,1635117853
90,Morros,-9.4467,-46.3003,79.18,65,89,2.53,BR,1635117854
91,Abu Dhabi,24.4667,54.3667,78.82,83,0,3.44,AE,1635117854
92,Gurupa,-1.405,-51.64,76.03,88,54,2.84,BR,1635117858
93,Zhenlai,45.8495,123.2973,41.65,43,81,7.9,CN,1635117860
94,Hermanus,-34.4187,19.2345,55.9,76,0,9.51,ZA,1635117861
95,Carnarvon,-24.8667,113.6333,69.87,68,75,14.97,AU,1635117630
96,Zaysan,47.4667,84.8667,35.49,40,3,0.69,KZ,1635117864
97,Saldanha,-33.0117,17.9442,53.65,79,0,14.58,ZA,1635117866
98,Portland,45.5234,-122.6762,58.21,79,75,5.01,US,1635117010
99,Khandbari,27.3747,87.2039,61.65,80,41,2.53,NP,1635117871
100,Bengkulu,-3.8004,102.2655,75.15,89,100,4.63,ID,1635117873
101,Jabalpur,23.167,79.9501,66.58,65,6,1.21,IN,1635117874
102,Barra Do Bugres,-15.0725,-57.1811,71.82,95,100,3.38,BR,1635117876
103,Tahe,52.3333,124.7333,33.58,79,56,3.2,CN,1635117877
104,Alakurtti,66.9672,30.3491,16.63,94,100,0.85,RU,1635117878
105,Hit,33.6416,42.8251,68.99,25,0,8.39,IQ,1635117880
106,Point Fortin,10.1833,-61.6833,80.53,85,100,14.7,TT,1635117881
107,Tamandare,-8.7597,-35.1047,77.49,76,60,9.33,BR,1635117883
108,Emba,48.8264,58.1442,46.63,51,100,7.9,KZ,1635117884
109,Mahebourg,-20.4081,57.7,74.25,78,40,11.5,MU,1635117885
110,Talnakh,69.4865,88.3972,26.31,97,100,6.29,RU,1635117887
111,Zhezkazgan,47.8043,67.7144,43.57,50,78,7.31,KZ,1635117888
112,Vostok,46.4856,135.8833,37.26,64,1,3.91,RU,1635117890
113,Omsukchan,62.5333,155.8,8.87,95,100,7.38,RU,1635117891
114,Umea,63.8284,20.2597,37.9,100,90,2.3,SE,1635117893
115,San Jeronimo,-11.9472,-75.2829,60.17,57,59,8.97,PE,1635117894
116,Severo-Kurilsk,50.6789,156.125,39.15,69,55,18.77,RU,1635117895
117,Chuy,-33.6971,-53.4616,58.64,72,0,7.78,UY,1635117897
118,Norman Wells,65.282,-126.8329,24.84,93,90,4.61,CA,1635117899
119,Turukhansk,65.8167,87.9833,25.75,91,100,15.1,RU,1635117639
120,Grand Gaube,-20.0064,57.6608,74.37,70,92,5.01,MU,1635117902
121,Poum,-20.2333,164.0167,76.03,71,48,10.67,NC,1635117898
122,Taltal,-25.4,-70.4833,61.66,73,23,4.97,CL,1635117684
123,Vanderhoof,54.0166,-124.0198,49.59,60,88,9.22,CA,1635117906
124,Upernavik,72.7868,-56.1549,15.57,67,83,8.19,GL,1635117908
125,Coihaique,-45.5752,-72.0662,48.15,76,90,8.05,CL,1635117714
126,Provideniya,64.3833,-173.3,26.71,59,0,6.71,RU,1635117912
127,Sao Paulo De Olivenca,-3.3783,-68.8725,82.81,68,97,1.25,BR,1635117914
128,Katsuura,35.1333,140.3,62.11,59,54,7.85,JP,1635117916
129,Ornskoldsvik,63.2909,18.7153,34.75,100,90,3.44,SE,1635117917
130,Leshukonskoye,64.8989,45.7622,25.11,90,29,9.06,RU,1635117918
131,Manaure,11.7751,-72.4445,85.77,64,33,20.11,CO,1635117920
132,Keti Bandar,24.1447,67.4497,77.61,61,0,5.79,PK,1635117921
133,Rundu,-17.9333,19.7667,76.12,54,96,4.27,NA,1635117923
134,Port Hardy,50.6996,-127.4199,50.18,87,75,13.8,CA,1635117924
135,Cabo San Lucas,22.8909,-109.9124,90.61,61,20,10.36,MX,1635117925
136,Tuktoyaktuk,69.4541,-133.0374,28.4,100,40,3.44,CA,1635117927
137,Jadu,31.953,12.0261,64.49,70,8,1.83,LY,1635117928
138,Dongsheng,39.8161,109.9776,41.95,44,100,7.52,CN,1635117930
139,Mandalgovi,45.7625,106.2708,32.02,49,14,11.97,MN,1635117931
140,Kodiak,57.79,-152.4072,45.91,76,75,9.22,US,1635117932
141,Kangaatsiaq,68.3065,-53.4641,19.92,89,57,6.71,GL,1635117936
142,Husavik,66.0449,-17.3389,39.11,95,100,15.23,IS,1635117938
143,Avarua,-21.2078,-159.775,77.05,53,40,13.8,CK,1635117939
144,Richards Bay,-28.783,32.0377,63.7,66,83,4.81,ZA,1635117896
145,Tabuk,17.4189,121.4443,74.39,90,92,1.36,PH,1635117925
146,Guaraniacu,-25.1008,-52.8781,59.86,89,3,4.38,BR,1635117944
147,Ixtapa,20.7,-105.2,87.03,66,75,4.61,MX,1635117945
148,Natal,-5.795,-35.2094,81.25,78,20,9.22,BR,1635117947
149,Mananjary,-21.2167,48.3333,76.21,89,67,10.89,MG,1635117948
150,Baijiantan,45.6333,85.1833,39.34,46,1,6.24,CN,1635117950
151,Port Lincoln,-34.7333,135.8667,56.79,64,0,15.23,AU,1635117951
152,Saint Anthony,45.0205,-93.218,48.92,57,1,3.0,US,1635117656
153,East London,-33.0153,27.9116,59.18,74,39,10.22,ZA,1635117954
154,Pakokku,21.3333,95.1,75.24,88,40,2.06,MM,1635117955
155,New Norfolk,-42.7826,147.0587,52.66,61,98,3.0,AU,1635117956
156,Munxar,36.0307,14.2348,69.39,85,61,1.01,MT,1635117958
157,Oistins,13.0667,-59.5333,80.69,78,40,21.85,BB,1635117921
158,Esperance,-33.8667,121.9,64.24,39,100,9.69,AU,1635117960
159,Jalesar,27.4833,78.3167,71.8,69,25,5.08,IN,1635117962
160,Liverpool,53.4106,-2.9779,54.68,86,0,4.0,GB,1635117961
161,Arraial Do Cabo,-22.9661,-42.0278,71.01,96,100,14.12,BR,1635117704
162,Sitka,57.0531,-135.33,49.89,57,40,0.0,US,1635117967
163,Puerto Carreno,6.189,-67.4859,81.59,73,89,6.89,CO,1635117969
164,Tuatapere,-46.1333,167.6833,62.67,76,93,2.37,NZ,1635117970
165,Manggar,-2.8833,108.2667,79.29,80,15,0.89,ID,1635117971
166,Manawar,22.2333,75.0833,71.42,56,0,2.8,IN,1635117973
167,Narsaq,60.9167,-46.05,32.22,48,93,6.62,GL,1635117974
168,Hualmay,-11.0964,-77.6139,64.08,79,41,12.12,PE,1635117720
169,Sivaki,52.6333,126.75,34.74,86,56,2.95,RU,1635117977
170,Labuhan,-6.8844,112.2051,79.18,81,29,9.46,ID,1635117978
171,Myaundzha,63.0494,147.1858,-4.59,98,75,1.25,RU,1635117980
172,Santa Barbara,34.7333,-120.0343,66.0,58,1,10.36,US,1635117692
173,Oudtshoorn,-33.5907,22.2014,46.76,73,0,2.13,ZA,1635117971
174,Paita,-5.0892,-81.1144,66.81,80,45,16.8,PE,1635117983
175,Valladolid,41.5833,-4.6667,48.4,48,0,2.68,ES,1635117719
176,Fiumicino,41.7675,12.2291,63.01,62,0,10.36,IT,1635117986
177,Barentu,15.1139,37.5928,75.67,48,30,2.46,ER,1635117988
178,Ahuimanu,21.4447,-157.8378,87.51,60,40,17.27,US,1635117989
179,Repatriacion,-25.5333,-55.95,60.44,72,0,4.79,PY,1635117990
180,Guaira,-20.3183,-48.3106,72.68,66,100,4.94,BR,1635117993
181,Longyearbyen,78.2186,15.6401,19.24,79,75,5.75,SJ,1635117994
182,Nogliki,51.8333,143.1667,36.68,80,50,9.93,RU,1635117996
183,Nadym,65.5333,72.5167,22.66,87,22,12.82,RU,1635117997
184,Ormara,25.2088,64.6357,76.6,56,0,3.76,PK,1635117999
185,Kavieng,-2.5744,150.7967,84.47,68,61,10.18,PG,1635117724
186,Villeta,5.0089,-74.4723,77.61,97,100,2.84,CO,1635118002
187,Melnikovo,56.5558,84.085,45.25,91,100,7.72,RU,1635118004
188,Pevek,69.7008,170.3133,7.16,93,100,4.43,RU,1635118005
189,Clyde River,70.4692,-68.5914,11.75,82,55,5.26,CA,1635118009
190,Kamenka,51.3223,42.7678,36.95,83,99,13.76,RU,1635118011
191,Masallatah,32.6167,14.0,68.65,83,0,5.32,LY,1635118012
192,Qurayyat,31.3318,37.3428,57.38,51,0,4.61,SA,1635118013
193,Barrow,71.2906,-156.7887,28.42,80,90,6.91,US,1635118015
194,Novomyrhorod,48.7811,31.642,41.68,64,99,9.53,UA,1635118019
195,Awbari,26.5921,12.7805,75.96,35,54,7.67,LY,1635118020
196,Viedma,-40.8135,-62.9967,75.61,24,40,26.51,AR,1635118021
197,Changli,39.7042,119.1506,48.72,71,55,5.12,CN,1635118023
198,Klaksvik,62.2266,-6.589,50.92,88,92,25.52,FO,1635117736
199,North Bend,43.4065,-124.2243,58.91,79,90,21.85,US,1635118026
200,Tremedal,-14.9758,-41.4108,74.79,82,78,3.87,BR,1635118027
201,Aklavik,68.2191,-135.0107,21.92,93,97,2.24,CA,1635118028
202,Nome,64.5011,-165.4064,33.87,80,90,13.8,US,1635117767
203,Bereda,43.2686,-7.5406,52.92,100,15,1.86,ES,1635118031
204,Shitanjing,39.2342,106.3439,43.25,45,65,2.46,CN,1635118033
205,Broken Hill,-31.95,141.4333,58.71,38,0,10.36,AU,1635118034
206,Yar-Sale,66.8333,70.8333,22.96,79,23,13.89,RU,1635118035
207,Gambo,4.6482,22.2633,69.21,99,100,1.99,CF,1635118037
208,Villarrica,-25.75,-56.4333,61.16,70,0,5.12,PY,1635118038
209,Georgetown,5.4112,100.3354,77.9,94,20,4.61,MY,1635117830
210,Pavagada,14.1,77.2667,71.26,85,100,5.91,IN,1635118041
211,Parainen,60.3067,22.301,50.11,89,100,22.88,FI,1635118042
212,Nhulunbuy,-12.2333,136.7667,86.61,58,40,10.36,AU,1635117916
213,Caravelas,-17.7125,-39.2481,77.43,86,7,10.76,BR,1635118045
214,Wellington,-41.2866,174.7756,62.26,92,75,3.0,NZ,1635118046
215,Rorvik,64.8621,11.2373,45.12,92,100,20.67,NO,1635118048
216,Hasaki,35.7333,140.8333,57.29,51,27,8.63,JP,1635118049
217,Flinders,-34.5833,150.8552,67.17,47,2,1.01,AU,1635118051
218,Paamiut,61.994,-49.6678,29.64,42,0,13.42,GL,1635118052
219,Rock Sound,24.9,-76.2,80.82,81,97,13.29,BS,1635118053
220,Waingapu,-9.6567,120.2641,80.87,79,89,1.21,ID,1635118055
221,Petatlan,17.5167,-101.2667,75.0,94,100,5.97,MX,1635118057
222,Hanmer Springs,-42.5167,172.8167,70.99,46,9,1.88,NZ,1635118059
223,Jamame,0.0722,42.7506,77.07,85,23,7.09,SO,1635118060
224,La Encarnacion,14.6667,-89.0833,79.52,91,96,1.36,HN,1635118062
225,Moerai,-22.4333,-151.3333,72.73,67,10,15.14,PF,1635118063
226,Kirakira,-10.4544,161.9205,85.59,69,39,8.7,SB,1635118064
227,Kholodnyy,62.7167,147.95,-2.25,98,86,2.75,RU,1635118067
228,Haines Junction,60.7522,-137.5108,37.35,65,50,1.14,CA,1635118068
229,Ilulissat,69.2167,-51.1,1.85,72,93,7.76,GL,1635118070
230,Bredasdorp,-34.5322,20.0403,49.32,87,0,3.44,ZA,1635118071
231,Santa Rosa,14.3122,121.1114,79.11,85,93,8.48,PH,1635118073
232,Mitsamiouli,-11.3847,43.2844,78.75,85,9,13.27,KM,1635118074
233,Say,13.1007,2.3689,88.36,55,80,5.26,NE,1635118075
234,Palmer,42.1584,-72.3287,53.02,75,20,3.44,US,1635118078
235,Cherskiy,68.75,161.3,-13.23,98,29,4.74,RU,1635118080
236,Labis,2.385,103.021,73.63,95,96,0.63,MY,1635118081
237,Romita,20.8667,-101.5167,68.63,64,90,4.61,MX,1635118082
238,Flin Flon,54.7682,-101.865,39.04,70,75,10.36,CA,1635118084
239,Dunhua,43.3725,128.2425,36.84,71,8,4.52,CN,1635118085
240,Hillsborough,37.5741,-122.3794,64.2,94,90,11.99,US,1635118087
241,Russell,32.3502,-85.1999,69.4,86,20,0.0,US,1635118052
242,Guerrero,17.6667,-100.0,67.55,94,100,4.7,MX,1635118089
243,Hilo,19.7297,-155.09,83.28,75,90,10.36,US,1635118091
244,Kismayo,-0.3582,42.5454,78.3,84,14,11.5,SO,1635118092
245,Port Hedland,-20.3167,118.5667,77.05,38,7,6.91,AU,1635118094
246,Toba,34.4833,136.85,59.0,91,100,21.68,JP,1635118095
247,Mareeba,-17.0,145.4333,83.32,70,8,8.21,AU,1635118096
248,Lavrentiya,65.5833,-171.0,22.55,81,100,10.78,RU,1635118098
249,Bethanien,-26.502,17.1583,62.38,29,3,6.02,NA,1635118099
250,Bubaque,11.2833,-15.8333,82.69,74,100,9.33,GW,1635118101
251,Maningrida,-12.0667,134.2667,85.5,65,40,6.26,AU,1635118102
252,Sudak,44.85,34.9667,45.81,64,18,8.5,UA,1635118104
253,Weyburn,49.6668,-103.8511,39.42,87,100,13.8,CA,1635118105
254,Verkhnevilyuysk,63.4453,120.3167,32.34,98,100,4.61,RU,1635118106
255,Pozzallo,36.7305,14.8499,63.25,88,3,10.54,IT,1635118108
256,Yertsevo,60.7966,40.086,24.22,94,12,4.76,RU,1635118109
257,Nuuk,64.1835,-51.7216,25.41,63,0,10.36,GL,1635118111
258,Gwanda,-20.9333,29.0,63.3,76,35,16.04,ZW,1635118112
259,Padang,-0.9492,100.3543,75.25,90,100,3.04,ID,1635117961
260,Kysyl-Syr,63.8986,122.7617,29.71,99,100,2.17,RU,1635118115
261,Kamaishi,39.2667,141.8833,45.55,63,28,3.76,JP,1635118116
262,Guiyang,26.5833,106.7167,52.29,76,90,2.24,CN,1635118118
263,Bandar-E Lengeh,26.5579,54.8807,81.55,57,0,3.33,IR,1635118119
264,Grosseto,42.8333,11.25,59.88,71,20,5.75,IT,1635118120
265,Tasiilaq,65.6145,-37.6368,32.16,86,100,45.25,GL,1635118063
266,Nemuro,43.3236,145.575,51.17,76,0,4.16,JP,1635118124
267,Mabaruma,8.2,-59.7833,74.48,98,100,2.89,GY,1635118126
268,Sohag,26.557,31.6948,71.89,46,0,9.42,EG,1635118064
269,Hvide Sande,56.0045,8.1294,48.0,78,99,16.89,DK,1635118128
270,Zhigalovo,54.8097,105.1578,37.27,97,100,7.29,RU,1635118130
271,Pimentel,-6.8367,-79.9342,62.89,77,0,24.16,PE,1635118131
272,Gilbues,-9.8317,-45.3439,81.09,59,100,3.42,BR,1635118133
273,Faanui,-16.4833,-151.75,75.85,89,100,13.85,PF,1635118134
274,Jinchang,38.4953,102.1739,46.11,50,99,2.73,CN,1635118135
275,Mount Gambier,-37.8333,140.7667,55.31,62,90,8.05,AU,1635118137
276,Constitucion,-35.3333,-72.4167,56.95,82,2,15.93,CL,1635118138
277,Victoria,22.2855,114.1577,71.26,73,46,1.01,HK,1635118070
278,Amot,59.5714,7.9877,46.51,95,100,4.09,NO,1635118141
279,Shakawe,-18.3667,21.85,72.77,55,79,4.16,BW,1635118142
280,Nalut,30.3333,10.85,71.2,36,0,6.6,LY,1635118144
281,Qeshm,26.9581,56.2719,84.09,67,0,9.95,IR,1635118145
282,Cabra,37.4725,-4.4421,59.9,65,2,3.67,ES,1635118147
283,Ouadda,8.0777,22.4007,68.83,90,79,2.1,CF,1635118148
284,Tynda,55.1667,124.7167,28.9,95,37,0.47,RU,1635118150
285,Rocha,-34.4833,-54.3333,59.92,63,7,9.6,UY,1635118151
286,Yerbogachen,61.2767,108.0108,34.39,97,100,10.2,RU,1635118152
287,Lebrija,36.9208,-6.0753,66.7,69,15,3.15,ES,1635118154
288,Faya,18.3851,42.4509,55.92,55,14,2.77,SA,1635118007
289,Solwezi,-12.1688,26.3894,65.52,81,98,2.08,ZM,1635118156
290,Havoysund,70.9963,24.6622,27.48,83,65,13.49,NO,1635118158
291,San Felipe,10.3399,-68.7425,72.88,97,92,3.27,VE,1635118159
292,Maragogi,-9.0122,-35.2225,77.56,76,47,10.36,BR,1635117888
293,Waipawa,-41.4122,175.5153,59.63,76,96,7.36,NZ,1635118162
294,Kuusamo,65.9667,29.1833,21.24,100,75,3.44,FI,1635118163
295,Pedernales,18.0384,-71.744,81.45,75,62,7.36,DO,1635118165
296,Prince Rupert,54.3161,-130.3201,56.89,48,100,16.11,CA,1635117965
297,Minbu,20.1833,94.8833,73.9,96,100,1.59,MM,1635118167
298,Komsomolskiy,40.4272,71.7189,44.02,60,0,6.91,UZ,1635118169
299,Pisco,-13.7,-76.2167,62.65,77,0,19.57,PE,1635118170
300,Jardim,-21.4803,-56.1381,69.58,71,65,4.63,BR,1635117921
301,Ancud,-41.8697,-73.8203,55.42,88,85,16.96,CL,1635118173
302,Udachnyy,66.4167,112.4,12.11,99,98,3.18,RU,1635118174
303,Meulaboh,4.1363,96.1285,74.68,90,100,4.56,ID,1635118176
304,Erenhot,43.6475,111.9767,44.33,34,94,11.16,CN,1635117919
305,Mildura,-34.2,142.15,58.06,41,0,8.05,AU,1635118178
306,Sambava,-14.2667,50.1667,75.49,88,95,4.94,MG,1635118180
307,Laguna,38.421,-121.4238,63.46,94,90,1.99,US,1635117933
308,Luderitz,-26.6481,15.1594,59.32,71,0,2.64,NA,1635118182
309,Rosarito,32.3333,-117.0333,73.58,71,12,8.19,MX,1635118184
310,Kimbe,-5.5502,150.1429,86.29,65,62,2.21,PG,1635118185
311,Puerto El Triunfo,13.2833,-88.55,85.06,80,48,3.69,SV,1635118187
312,Sterling Heights,42.5803,-83.0302,50.04,91,90,1.01,US,1635118013
313,Mineiros,-17.5694,-52.5511,67.35,91,100,3.02,BR,1635118189
314,Ganzhou,28.8184,115.4327,54.88,76,26,3.24,CN,1635118191
315,Neepawa,50.2289,-99.4664,43.2,60,94,8.66,CA,1635118192
316,Pemangkat,1.1667,108.9667,77.67,88,71,3.2,ID,1635118020
317,Airai,-8.9266,125.4092,68.02,65,98,1.07,TL,1635118195
318,Ribeira Grande,38.5167,-28.7,66.69,73,12,7.9,PT,1635118150
319,Obo,5.3998,26.4869,71.56,91,31,1.05,CF,1635117939
320,Buarcos,40.166,-8.8768,58.55,93,0,3.27,PT,1635118198
321,Cayenne,4.9333,-52.3333,79.09,90,75,7.0,GF,1635118200
322,Huangpi,30.8845,114.3779,51.91,93,100,4.47,CN,1635118201
323,Ardmore,34.1743,-97.1436,84.02,31,1,3.0,US,1635118203
324,Kapuskasing,49.4169,-82.4331,35.69,100,75,5.75,CA,1635118205
325,Aykhal,66.0,111.5,19.87,97,100,5.12,RU,1635118207
326,Kidal,18.4411,1.4078,92.39,19,76,0.76,ML,1635118004
327,Potiskum,11.7091,11.0694,81.16,26,82,6.13,NG,1635118210
328,Fairbanks,64.8378,-147.7164,26.94,93,90,0.0,US,1635118179
329,Bethel,41.3712,-73.414,54.91,77,90,0.0,US,1635118088
330,San Vicente,-26.6167,-54.1333,53.1,89,0,2.77,AR,1635118214
331,Gazojak,41.1875,61.4036,48.96,28,15,0.78,TM,1635118216
332,Khuzhir,53.1939,107.3397,41.95,72,92,13.29,RU,1635118217
333,Evensk,61.95,159.2333,10.8,70,79,1.41,RU,1635118218
334,Port-Gentil,-0.7193,8.7815,78.76,89,40,8.05,GA,1635118220
335,Tateyama,34.9833,139.8667,62.02,58,44,10.51,JP,1635118222
336,Saint-Joseph,-21.3667,55.6167,71.98,82,39,12.41,RE,1635118223
337,Vernon,50.2581,-119.2691,58.6,50,100,1.01,CA,1635118050
338,Hamilton,39.1834,-84.5333,72.99,87,1,1.01,US,1635118226
339,Amahai,-3.3333,128.9167,83.16,71,77,0.78,ID,1635118227
340,Tarauaca,-8.1614,-70.7656,83.07,63,83,3.38,BR,1635118229
341,Santa Catalina,9.3337,122.8637,82.09,76,76,1.39,PH,1635118230
342,Mosquera,4.7059,-74.2302,57.29,94,75,6.91,CO,1635118232
343,Inhambane,-23.865,35.3833,73.24,88,100,4.45,MZ,1635118233
344,Kalavad,22.2167,70.3833,73.83,74,0,5.48,IN,1635118234
345,Sinnamary,5.3833,-52.95,77.94,91,100,10.76,GF,1635118236
346,Sawtell,-30.3833,153.1,75.18,72,40,9.22,AU,1635118237
347,Kenai,60.5544,-151.2583,46.45,73,1,4.61,US,1635118239
348,Monroe,43.1501,-77.6831,52.95,78,90,5.75,US,1635117970
349,Iwaki,37.05,140.8833,63.23,57,13,4.05,JP,1635118241
350,Souillac,-20.5167,57.5167,74.35,78,40,11.5,MU,1635118244
351,Biltine,14.5333,20.9167,82.81,22,8,15.21,TD,1635118246
352,Mitzic,0.7821,11.549,68.31,99,75,2.57,GA,1635118247
353,Road Town,18.4167,-64.6167,81.19,89,40,11.5,VG,1635118250
354,Limbe,4.0242,9.2149,78.04,87,45,3.09,CM,1635118101
355,Vallenar,-28.5708,-70.7581,71.29,37,0,4.65,CL,1635118215
356,Stornoway,58.2093,-6.3865,49.96,87,40,13.8,GB,1635118254
357,Maner,25.65,84.8833,69.71,76,35,4.68,IN,1635118255
358,San Patricio,28.017,-97.5169,88.54,76,7,13.51,US,1635118256
359,Sao Pedro Da Aldeia,-22.8392,-42.1028,71.58,94,100,9.53,BR,1635118258
360,Manono,-7.3,27.4167,67.86,94,100,2.53,CD,1635118259
361,Chiang Khong,20.2613,100.4046,73.72,99,89,1.14,TH,1635118261
362,Lagoa,39.05,-27.9833,66.2,74,25,8.41,PT,1635118154
363,Saint-Francois,46.4154,3.9054,42.67,100,0,3.44,FR,1635118266
364,Namibe,-15.1961,12.1522,62.96,86,0,5.5,AO,1635118267
365,Heyang,26.1011,107.473,52.0,76,88,2.39,CN,1635118269
366,Stockbridge,33.5443,-84.2338,70.74,81,100,4.27,US,1635118270
367,Ibra,22.6906,58.5334,73.27,61,21,4.27,OM,1635118271
368,Saint-Georges,12.0564,-61.7485,78.48,94,40,11.5,GD,1635118273
369,Porbandar,21.6422,69.6093,77.47,66,0,5.14,IN,1635118274
370,Saskylakh,71.9167,114.0833,-16.8,100,64,3.56,RU,1635118276
371,Madinat Sittah Uktubar,29.8167,31.05,69.4,77,1,8.77,EG,1635118277
372,Nadvoitsy,63.8667,34.3167,24.69,90,92,5.95,RU,1635118279
373,Abu Samrah,35.3029,37.1841,62.19,67,0,3.38,SY,1635118280
374,Ignatovka,53.9479,47.6536,36.88,91,94,8.5,RU,1635118282
375,Half Moon Bay,37.4636,-122.4286,64.8,94,90,8.99,US,1635118283
376,Grand Island,40.925,-98.342,48.49,82,90,4.0,US,1635118285
377,Beloha,-25.1667,45.05,69.55,92,74,7.47,MG,1635118286
378,Matara,5.9485,80.5353,76.69,90,100,6.91,LK,1635118287
379,Charlottesville,38.0293,-78.4767,68.65,79,1,4.0,US,1635118197
380,Dunedin,-45.8742,170.5036,60.82,70,75,3.38,NZ,1635118097
381,Taguatinga,-12.3857,-46.5711,81.28,63,99,1.54,BR,1635118291
382,Vaitape,-16.5167,-151.75,75.61,88,100,13.04,PF,1635118293
383,La Ronge,55.1001,-105.2842,41.25,70,20,10.36,CA,1635118294
384,Mahon,39.8885,4.2658,67.53,77,23,11.56,ES,1635118295
385,Khorixas,-20.3667,14.9667,56.46,53,1,1.61,NA,1635118297
386,Black Forest,39.0131,-104.7008,64.29,26,1,3.0,US,1635118298
387,Jalingo,8.8833,11.3667,77.7,72,89,3.94,NG,1635118300
388,Launceston,-41.45,147.1667,55.8,64,90,11.99,AU,1635118301
389,Castro,-24.7911,-50.0119,55.56,96,89,3.11,BR,1635118176
390,Gilgit,35.9221,74.3087,52.09,71,98,2.42,PK,1635118305
391,Kitsuki,33.4167,131.6167,60.6,82,75,5.75,JP,1635118306
392,Suntar,62.1444,117.6319,34.23,98,100,6.51,RU,1635118308
393,Ono,34.85,134.9333,60.35,84,100,4.61,JP,1635118309
394,Sahawar,27.8,78.85,70.03,74,13,5.3,IN,1635118311
395,Alice Springs,-23.7,133.8833,72.95,27,40,11.5,AU,1635118312
396,Acapulco,16.8634,-99.8901,75.02,94,90,14.97,MX,1635118313
397,Andenes,69.3143,16.1194,37.38,70,100,13.8,NO,1635118315
398,Moree,-29.4667,149.85,73.42,27,70,6.91,AU,1635118316
399,Northam,51.0333,-4.2167,57.09,94,37,13.78,GB,1635118318
400,Sragen,-7.4264,111.0222,80.19,76,81,8.46,ID,1635118319
401,Egvekinot,66.3167,-179.1667,6.57,85,24,5.73,RU,1635118321
402,Atar,20.5169,-13.0499,84.22,21,28,2.42,MR,1635118112
403,Orlik,52.5178,99.825,27.09,89,82,3.44,RU,1635118323
404,Sisimiut,66.9395,-53.6735,17.71,79,44,9.51,GL,1635118325
405,Torbay,47.6666,-52.7314,55.58,85,90,32.21,CA,1635118220
406,Krasnoye,49.9145,24.6134,29.55,73,74,4.47,UA,1635118327
407,Pandamatenga,-18.5278,25.627,76.28,42,61,8.61,BW,1635118329
408,Novochernorechenskiy,56.2669,91.0828,41.27,92,98,9.66,RU,1635118330
409,Kassala,15.451,36.4,80.78,59,33,9.62,SD,1635118332
410,Meadow Lake,34.8014,-106.5436,74.68,18,10,14.99,US,1635118333
411,Gatesville,31.4352,-97.7439,85.57,63,1,6.91,US,1635118334
412,Yunyang,33.4474,112.7142,56.03,66,100,1.79,CN,1635118337
413,Kununurra,-15.7667,128.7333,82.38,69,74,4.61,AU,1635118338
414,Rapid Valley,44.0625,-103.1463,59.04,58,1,6.91,US,1635118340
415,Russkaya Polyana,49.417,31.9201,37.26,74,83,8.48,UA,1635118341
416,Hay River,60.8156,-115.7999,40.98,87,75,9.22,CA,1635118125
417,Kaeo,-35.1,173.7833,71.33,77,15,5.37,NZ,1635118345
418,Kavaratti,10.5669,72.642,81.43,77,88,11.18,IN,1635118346
419,Goya,-29.14,-59.2626,64.44,42,1,0.94,AR,1635118348
420,Korla,41.7597,86.1469,45.45,42,0,3.62,CN,1635118067
421,Samarai,-10.6167,150.6667,83.23,74,35,12.82,PG,1635118351
422,Andros Town,24.7,-77.7667,80.56,74,94,12.39,BS,1635118352
423,Tambovka,50.0969,128.0489,33.91,59,8,7.45,RU,1635118353
424,Novobirilyussy,56.9514,90.6661,42.66,88,87,8.39,RU,1635118355
425,Khandyga,62.6667,135.6,24.94,96,100,1.77,RU,1635118356
426,Oranjemund,-28.55,16.4333,59.07,78,0,12.1,NA,1635118358
427,Yasnyy,51.0333,59.8742,45.36,41,100,7.61,RU,1635118359
428,Lima,-12.0432,-77.0282,68.9,71,40,13.8,PE,1635118360
429,Markova,48.6758,24.4138,33.49,77,58,3.47,UA,1635118362
430,Urucara,-2.5364,-57.76,78.17,86,83,2.46,BR,1635118363
431,Saint George,37.1041,-113.5841,75.67,31,1,4.0,US,1635118329
432,Khani,41.9563,42.9566,45.97,88,87,0.65,GE,1635118366
433,Yumen,40.2833,97.2,44.1,36,100,15.35,CN,1635118369
434,Mazagao,-0.115,-51.2894,86.05,88,19,4.07,BR,1635118370
435,Belmonte,-15.8631,-38.8828,77.5,90,48,7.9,BR,1635118185
436,Freeport,40.6576,-73.5832,59.25,67,1,1.99,US,1635118214
437,Hirara,24.8,125.2833,76.86,78,75,10.36,JP,1635118374
438,Dingle,10.9995,122.6711,80.01,85,99,0.87,PH,1635118376
439,Hovd,48.0056,91.6419,32.02,36,4,2.01,MN,1635118378
440,Voyvozh,62.892,54.9635,25.68,95,100,4.23,RU,1635118379
441,Dolores Hidalgo,21.1561,-100.9308,66.78,48,99,10.83,MX,1635118347
442,Siljan,59.2884,9.71,52.3,89,100,9.66,NO,1635118382
443,Beringovskiy,63.05,179.3167,10.6,79,38,6.46,RU,1635118384
444,Abbeville,50.1,1.8333,54.5,80,95,10.58,FR,1635118224
445,Namatanai,-3.6667,152.4333,85.41,65,93,4.21,PG,1635118386
446,Santiago Del Estero,-27.7951,-64.2615,72.81,22,0,8.86,AR,1635118388
447,Kulhudhuffushi,6.6221,73.07,81.68,79,73,11.54,MV,1635118114
448,Yenagoa,4.9247,6.2642,76.14,90,51,3.42,NG,1635118391
449,Mount Isa,-20.7333,139.5,80.37,47,100,9.24,AU,1635118328
450,Ambanja,-13.6833,48.45,74.34,86,82,2.28,MG,1635118394
451,Bilibino,68.0546,166.4372,-13.16,97,74,2.28,RU,1635118395
452,Vardo,70.3705,31.1107,35.22,55,61,7.99,NO,1635118397
453,Makakilo City,21.3469,-158.0858,86.32,49,75,12.66,US,1635118398
454,Ust-Omchug,61.15,149.6333,11.57,94,89,3.78,RU,1635118400
455,Athabasca,54.7169,-113.2854,51.62,77,41,8.23,CA,1635118358
456,Nelson,-41.2833,173.2833,70.81,69,41,5.32,NZ,1635118402
457,Elizabeth City,36.2946,-76.2511,70.02,83,1,3.44,US,1635118404
458,Yanam,16.7333,82.2167,73.76,80,78,4.21,IN,1635118405
459,Nizhniy Tsasuchey,50.5167,115.1333,34.48,72,20,6.89,RU,1635118407
460,Nouadhibou,20.931,-17.0347,71.58,73,87,13.8,MR,1635118408
461,Cepelare,41.7333,24.6833,35.22,95,16,2.73,BG,1635118410
462,Pangnirtung,66.1451,-65.7125,20.64,91,92,2.33,CA,1635118411
463,Victor Harbor,-35.5667,138.6167,64.8,62,24,10.54,AU,1635118412
464,Taksimo,56.3444,114.8794,29.21,80,96,1.66,RU,1635118414
465,Hammerfest,70.6634,23.6821,23.45,80,77,4.61,NO,1635118415
466,Isangel,-19.55,169.2667,80.71,74,75,6.91,VU,1635118417
467,Lechinkay,43.5647,43.4328,44.22,93,90,6.71,RU,1635118418
468,Ishigaki,24.3448,124.1572,75.33,78,40,8.05,JP,1635118420
469,Sioux Lookout,50.1001,-91.917,37.78,80,20,2.3,CA,1635118421
470,Senanga,-16.1167,23.2667,70.74,67,94,3.62,ZM,1635118422
471,Calvinia,-31.4707,19.776,56.39,35,0,7.34,ZA,1635118424
472,Honningsvag,70.9821,25.9704,24.33,72,45,14.54,NO,1635118425
473,Sapa,5.1544,120.3241,82.29,75,44,3.65,PH,1635118427
474,Krasnoselkup,65.7,82.4667,24.57,92,99,19.6,RU,1635118428
475,Melukote,12.6589,76.6506,65.98,91,100,0.34,IN,1635118429
476,Kerrville,30.0474,-99.1403,81.55,73,1,1.99,US,1635118431
477,Japura,-0.3167,102.35,73.83,98,100,3.98,ID,1635118432
478,Parrita,9.5201,-84.3225,83.52,88,86,4.34,CR,1635118434
479,Uarini,-2.99,-65.1083,73.15,91,80,0.07,BR,1635118435
480,Sola,-13.8833,167.55,80.62,77,28,11.03,VU,1635118437
481,Dombarovskiy,50.7587,59.5386,46.24,38,100,7.36,RU,1635118438
482,Sibolga,1.7427,98.7792,76.08,86,100,2.66,ID,1635118439
483,Cap Malheureux,-19.9842,57.6142,74.46,70,91,5.01,MU,1635118441
484,Council Bluffs,41.2619,-95.8608,47.17,94,90,18.41,US,1635118442
485,Mugur-Aksy,50.35,90.5,19.53,84,30,5.73,RU,1635118444
486,Falam,22.9167,93.6833,56.19,96,10,1.74,MM,1635118445
487,Auki,-8.7676,160.7034,83.55,74,18,3.6,SB,1635118447
488,Otavalo,0.2333,-78.2667,55.62,94,95,1.68,EC,1635118158
489,Issia,6.4922,-6.5856,71.51,100,100,2.62,CI,1635118449
490,Calabozo,8.9242,-67.4293,81.41,62,99,3.62,VE,1635118451
491,Halden,59.1226,11.3871,52.92,89,100,12.75,NO,1635118452
492,Yongan,39.6957,113.6871,46.65,68,89,3.36,CN,1635118453
493,West Wendover,40.7391,-114.0733,49.21,71,90,5.75,US,1635118455
494,Griffith,41.5284,-87.4237,50.16,95,90,4.0,US,1635118456
495,Thinadhoo,0.5333,72.9333,82.76,72,79,14.76,MV,1635118351
496,Deputatskiy,69.3,139.9,2.53,96,100,0.94,RU,1635118459
497,Nara,34.6851,135.8049,60.17,84,100,6.89,JP,1635118460
498,Milyutinskaya,48.6279,41.6679,39.0,73,51,7.87,RU,1635118462
499,Powell,40.1578,-83.0752,59.27,96,90,1.01,US,1635118463
500,Guerrero Negro,27.9769,-114.0611,68.13,66,0,16.44,MX,1635118465
501,Cabedelo,-6.9811,-34.8339,79.47,77,96,9.55,BR,1635118466
502,Tingo Maria,-9.2895,-76.0088,77.29,78,68,2.1,PE,1635118467
503,Saint-Denis,48.9167,2.3333,52.14,81,0,3.44,FR,1635118469
504,Chemal,51.4111,86.005,37.4,79,78,5.57,RU,1635118472
505,Great Bend,38.3645,-98.7648,70.32,40,1,5.01,US,1635118473
506,Beyneu,45.3167,55.2,53.17,39,97,8.28,KZ,1635118474
507,Sayyan,15.1718,44.3244,52.05,27,50,2.04,YE,1635118476
508,Olafsvik,64.8945,-23.7142,42.31,89,100,22.53,IS,1635118477
509,Soyo,-6.1349,12.3689,76.93,83,92,9.73,AO,1635118479
510,Mumbwa,-14.9783,27.0619,72.25,46,67,3.47,ZM,1635118480
511,Insch,57.3427,-2.6132,51.24,81,79,11.68,GB,1635118483
512,Coquimbo,-29.9533,-71.3436,58.73,77,0,11.5,CL,1635118484
513,Peruibe,-24.32,-46.9983,65.75,95,100,6.96,BR,1635118485
514,Srivardhan,18.0333,73.0167,73.27,86,10,5.61,IN,1635118487
515,Magadi,12.9667,77.2333,70.14,90,100,4.0,IN,1635118488
516,San Javier,37.8063,-0.8374,62.24,82,0,1.99,ES,1635118490
517,Akdagmadeni,39.6603,35.8836,43.54,86,66,11.14,TR,1635118491
518,Alofi,-19.0595,-169.9187,82.29,54,47,17.27,NU,1635118493
519,Naze,28.3667,129.4833,67.12,81,68,7.72,JP,1635118494
520,Awjilah,29.1081,21.2869,73.04,33,10,12.53,LY,1635118495
521,Humaita,-7.5061,-63.0208,80.01,75,90,2.21,BR,1635118497
522,Pemba,-12.974,40.5178,77.9,85,6,7.14,MZ,1635118498
523,Ambajogai,18.7333,76.3833,66.56,77,16,2.3,IN,1635118500
524,Pokhara,28.2333,83.9833,59.43,61,0,6.76,NP,1635118501
525,Shieli,44.1667,66.75,47.7,42,50,4.38,KZ,1635118503
526,Bashmakovo,53.2133,43.0342,31.86,81,95,15.97,RU,1635118506
527,Dusetos,55.75,25.85,33.62,94,54,6.06,LT,1635118507
528,Nelson Bay,-32.7167,152.15,73.29,58,15,3.0,AU,1635118509
529,Vilhena,-12.7406,-60.1458,70.02,94,0,8.05,BR,1635118510
530,Sweetwater,25.7634,-80.3731,83.01,84,90,6.91,US,1635118512
531,Marawi,7.9986,124.2928,70.65,72,57,0.76,PH,1635118513
532,Lasa,46.6166,10.7002,53.06,30,72,2.59,IT,1635118514
533,Pasighat,28.0667,95.3333,66.78,77,0,3.11,IN,1635118516
534,Kieta,-6.2167,155.6333,86.14,61,86,3.42,PG,1635118517
535,Zhigansk,66.7697,123.3711,12.92,97,81,5.28,RU,1635118519
536,Kawalu,-7.3817,108.2082,73.92,93,97,2.82,ID,1635118520
537,Vao,-22.6667,167.4833,70.7,70,17,11.21,NC,1635118521
538,Vila Franca Do Campo,37.7167,-25.4333,64.81,79,0,4.85,PT,1635118523
539,Port Blair,11.6667,92.75,79.84,81,80,4.88,IN,1635118524
540,Hortobagy,47.5828,21.1511,35.8,63,32,3.2,HU,1635118526
541,Brookings,44.3114,-96.7984,45.01,87,90,6.91,US,1635118527
542,Codrington,-38.2667,141.9667,54.54,61,87,12.17,AU,1635118529
543,Trinidad,-14.8333,-64.9,66.18,82,90,8.05,BO,1635118530
544,Sept-Iles,50.2001,-66.3821,48.72,81,90,1.99,CA,1635118533
545,Camacupa,-12.0167,17.4833,64.63,90,99,3.51,AO,1635118534
546,Altayskoye,51.9533,85.3325,46.62,54,100,4.61,RU,1635118535
547,Quatre Cocos,-20.2078,57.7625,74.08,77,88,14.09,MU,1635118537
548,Shangzhi,45.2167,127.9667,44.73,65,39,4.81,CN,1635118538
549,Paicandu,-23.4575,-52.0486,70.47,73,20,4.61,BR,1635118540
550,Benghazi,32.1167,20.0667,77.5,42,100,13.78,LY,1635118541
551,Le Vauclin,14.5452,-60.8388,80.65,74,20,11.5,MQ,1635118542
552,Asau,46.4333,26.4,36.52,82,7,2.91,RO,1635118544
553,Hami,42.8,93.45,42.01,37,4,6.78,CN,1635118546
554,Tigil,57.8,158.6667,24.15,95,83,4.88,RU,1635118547
555,Majene,-3.5403,118.9707,81.52,81,90,3.85,ID,1635118549
556,Kodinsk,58.6881,99.1844,37.74,83,98,11.99,RU,1635118550
557,Ratnagiri,16.9833,73.3,74.32,86,45,7.58,IN,1635118551
558,Adrar,20.5022,-10.0711,82.08,22,29,7.7,MR,1635118553
559,Srednekolymsk,67.45,153.6833,-0.08,82,100,2.17,RU,1635118555
560,Vestmannaeyjar,63.4427,-20.2734,44.17,89,100,3.53,IS,1635118557
561,Cockburn Town,21.4612,-71.1419,82.36,74,40,8.05,TC,1635118346
562,Necochea,-38.5473,-58.7368,61.03,53,7,14.5,AR,1635118560
563,Belousovka,50.1339,82.5239,38.25,65,75,6.71,KZ,1635118561
